stop_id,stop_name,stop_desc,stop_lat,stop_lon,zone_id,stop_url
1600,TIDWELL RD @ WHEATLEY ST,,29.8469,-95.42824,,
1601,TIDWELL RD @ TUSKEGEE ST,,29.84689,-95.42613,,
1603,KNOX ST @ MANSFIELD ST,,29.8513,-95.423,,
1604,KNOX ST @ RACHEL ST,,29.85396,-95.42303,,
1608,MONTGOMERY RD @ SHEPHERD DR,,29.85001,-95.41256,,
1609,DE PRIEST DR @ ROSIE ST,,29.85867,-95.41804,,
1616,LAWN DR @ FORTUNE,,29.8735,-95.41737,,
1617,LAWN DR @ RINGOLD ST,,29.875135,-95.417387,,
1618,RINGOLD ST @ DE PRIEST DR,,29.8744,-95.42106,,
1620,DE PRIEST DR @ MARCOLIN ST,,29.87987,-95.42071,,
1621,DE PRIEST DR @ DEWALT ST,,29.88232,-95.42074,,
1622,DEWALT ST @ PARKWAY DR,,29.88239,-95.42373,,
1623,DEWALT ST @ PARKWAY DR,,29.88237,-95.42532,,
1624,DEWALT ST @ PRAIRIE VIEW DR,,29.88209,-95.42815,,
1626,DEWALT ST @ IRBY,,29.88194,-95.43361,,
1627,DEWALT ST @ TOWER ST,,29.88182,-95.43784,,
1629,DEWALT ST @ BECKLEY ST,,29.8826,-95.44251,,
1630,DEWALT ST @ BECKLEY ST,,29.88253,-95.4451,,
1632,MONTGOMERY RD @ MC CRAREY DR,,29.887479,-95.453293,,
1660,MAIN ST @ DRYDEN RD,,29.710574,-95.40177,,
1663,MAXEY ROAD PR,MAXEY PR,29.784356,-95.217505,,
1665,WESTWOOD PR,SOUTHWEST FREEWAY,29.672222,-95.548233,,
1666,GREENSPOINT TC,GREENSPOINT DR,29.948593,-95.410372,,
1667,ACRES HOMES TC,MONTGOMERY RD,29.864924,-95.431,,
1668,FIFTH WARD/DENVER HARBOR TC,LOCKWOOD DR,29.77535,-95.315375,,
1669,HEIGHTS TC,MAIN ST,29.805554,-95.388335,,
1670,HILLCROFT TC,SOUTHWEST FREEWAY,29.722667,-95.495853,,
1671,SOUTHEAST TC,SCOTTCREST DR,29.701387,-95.357172,,
1672,HIRAM CLARKE TC,HIRAMCLARKETC,29.613892,-95.43185,,
1673,BELLAIRE TC,BELLAIRE BLVD,29.705711,-95.468828,,
1674,EASTWOOD TC,,29.728231,-95.335165,,
1675,KASHMERE TC,KELLEY ST,29.814114,-95.327869,,
1676,MAGNOLIA TC,,29.735182,-95.303051,,
1677,MESA TC,MESA DR,29.849745,-95.264317,,
1678,NORTHWEST TC,OLD KATY RD,29.783119,-95.455608,,
1679,TIDWELL TC,,29.851592,-95.337105,,
1680,FUQUA PR,,29.609847,-95.216809,,
1681,MONROE PR,,29.663962,-95.254652,,
1682,NORTH SHEPHERD PR,SHEPHERD DR,29.876033,-95.41408,,
1683,SPRING PR,CARLSWAY RD,30.022056,-95.417583,,
1684,GESSNER PR,WESTPARK DR,29.720308,-95.537253,,
1685,KINGSLAND PR,KINGSLAND BLVD,29.774021,-95.744426,,
1686,EL FRANCO LEE CLINIC,EL FRANCO LEE DR & GLENWOLDE DR,29.6797,-95.573001,,
1687,ADDICKS PR,PARK ROW RD,29.787456,-95.638333,,
1688,BAY AREA PR,BAY AREA BLVD,29.552869,-95.124196,,
1689,EASTEX PR,,29.927799,-95.298148,,
1690,KINGWOOD PR,,30.054285,-95.183092,,
1691,KUYKENDAHL PR,KUYKENDAHL RD,29.973646,-95.425368,,
1692,WEST LITTLE YORK PR,HEMPSTEAD RD,29.86976,-95.553093,,
1693,MISSION BEND PR,,29.711374,-95.62941,,
1694,NORTHWEST STATION PR,NORTHWEST FREEWAY,29.902195,-95.594044,,
1695,PINEMONT PR,,29.839891,-95.483122,,
1696,MISSOURI CITY PR,FONDREN RD,29.621829,-95.507102,,
1697,SETON LAKE PR,SETON LAKE DR,29.927812,-95.499306,,
1698,WEST BELLFORT PR,ROARK RD,29.655206,-95.559837,,
1699,WEST LOOP PR,WEST LOOP P&R,29.679521,-95.45719,,
1700,MEMORIAL DR @ GREENBAY,,29.76248,-95.5064,,
1701,RANCHESTER DR @ TOWN PARK DR,,29.714642,-95.547516,,
1702,RANCHESTER DR @ HARWIN DR,,29.714578,-95.547662,,
1703,GESSNER RD @ HENDON LN,,29.69421,-95.53705,,
1704,PLAZAMERICAS,BELLAIRE BLVD & SOUTHWEST FREEWAY,29.705262,-95.515699,,
1705,HILLCROFT AVE @ SOUTHWEST FREEWAY,,29.717348,-95.50008,,
1706,RICE AVE @ WESTPARK DR,,29.725924,-95.468467,,
1707,SILBER RD @ SHAVELSON ST,,29.786882,-95.467929,,
1708,SILBER RD @ HARTLAND ST,,29.788573,-95.467995,,
1709,SILBER RD @ HARTLAND ST,,29.79119,-95.468033,,
1710,SILBER RD @ ROLLA ST,,29.792729,-95.468048,,
1711,SILBER RD @ ROLLA ST,,29.792878,-95.468191,,
1712,SILBER RD @ ROLLA ST,,29.791062,-95.468186,,
1713,SILBER RD @ HARTLAND ST,,29.78881,-95.468151,,
1714,SILBER RD @ SHAVELSON ST,,29.787098,-95.468137,,
1717,WESTVIEW DR @ CEDAR POST LN,,29.793008,-95.523529,,
1718,CAMPBELL RD @ PECOS ST,,29.79755,-95.51386,,
1719,FOURNACE PL @ ANDERSON ST,,29.716659,-95.463875,,
1720,BRAESWOOD BLVD @ GESSNER RD,,29.671438,-95.529686,,
1721,GRAY ST @ WAUGH DR,,29.753147,-95.398315,,
1724,PIERCE ST @ CRAWFORD ST,,29.7464,-95.365868,,
1726,WESTHEIMER RD @ LOOP,,29.741033,-95.456859,,
1727,WESTHEIMER RD @ EASTGROVE LN,,29.741559,-95.438683,,
1728,WESTHEIMER RD @ BUFFALO SPEEDWAY,,29.741986,-95.430235,,
1729,ALABAMA ST @ BUFFALO SPEEDWAY,,29.73842,-95.4288,,
1730,YORKTOWN ST @ INWOOD DR,,29.74685,-95.47076,,
1731,ST JAMES PL @ SAN FELIPE RD,,29.74944,-95.47288,,
1732,POST OAK LN @ WESTBRIAR LN,,29.751485,-95.462914,,
1733,POST OAK RD @ MEMORIAL DR,,29.773933,-95.456452,,
1735,POST OAK RD @ OAKFORD DR,,29.77782,-95.456505,,
1736,POST OAK RD @ OAKFORD DR,,29.780041,-95.456548,,
1737,WESTHEIMER RD @ CRESCENT PARK DR,,29.736388,-95.585711,,
1740,MEMORIAL DR @ WILCREST DR,,29.77279,-95.58013,,
1741,CAVALCADE ST @ RUSSELL ST,,29.80006,-95.33273,,
1742,TIDWELL RD @ SHOREHAM ST,,29.848043,-95.344673,,
1743,WAYSIDE DR @ MILLARD ST,,29.803515,-95.2845,,
1744,WAYSIDE DR @ LOOP,,29.804014,-95.284721,,
1745,EASTEX FREEWAY   @ BAY ST,,29.800033,-95.339234,,
1746,LOOP   @ GELLHORN DR,,29.785182,-95.264596,,
1747,LOOP   @ GELLHORN DR,,29.788776,-95.266098,,
1748,LOOP   @ GELLHORN DR,,29.790611,-95.26682,,
1749,LOOP   @ BANNER DR,,29.796655,-95.270287,,
1750,LOOP   @ CITYPARK LOOP,,29.798525,-95.273239,,
1751,SAN JACINTO ST @ CLEBURNE ST,,29.734828,-95.379822,,
1753,20TH ST @ DURHAM DR,,29.80378,-95.41471,,
1754,COOK RD @ DASHWOOD DR,,29.70743,-95.59621,,
1756,RICHMOND AVE @ CASETA DR,,29.7303,-95.650296,,
1758,WESTLAKE PARK BLVD @ GRACIE ST,,29.780582,-95.630134,,
1759,WESTHEIMER RD @ OLD FARM RD,,29.737357,-95.510327,,
1760,WESTHEIMER RD @ OLD FARM RD,,29.737639,-95.512175,,
1761,DIVIDEND DR @ CURRENCY ST,,29.780375,-95.260338,,
1762,CURRENCY ST @ LOOP,,29.779679,-95.262291,,
1763,GELLHORN DR @ LOOP,,29.78435,-95.26575,,
1764,GELLHORN DR @ LOOP,,29.78222,-95.27017,,
1765,GELLHORN DR @ LOOP,,29.77987,-95.27158,,
1766,GELLHORN DR @ EAST FREEWAY,,29.77746,-95.2721,,
1767,GELLHORN DR @ EAST FREEWAY,,29.7747,-95.27291,,
1768,GELLHORN DR @ MARKET ST,,29.77102,-95.27306,,
1769,PLEASANTVILLE DR @ MARKET ST,,29.770781,-95.27761,,
1770,PLEASANTVILLE DR @ MARKET ST,,29.76942,-95.2769,,
1771,PLEASANTVILLE DR @ TILGHAM ST,,29.76623,-95.27605,,
1772,TILGHAM ST @ GELLHORN DR,,29.76584,-95.27291,,
1773,TILGHAM ST @ LEDWICKE,,29.765512,-95.270416,,
1774,LEDWICKE   @ PATTIBOB,,29.7634,-95.27013,,
1775,LEDWICKE   @ FLOSSIE MAE,,29.76193,-95.2701,,
1776,LEDWICKE   @ GUINEVERE ST,,29.76043,-95.27004,,
1777,GELLHORN DR @ GUINEVERE ST,,29.759867,-95.272849,,
1778,GELLHORN DR @ BUCROFT,,29.75746,-95.27277,,
1779,BUCROFT   @ SILVERDALE,,29.75734,-95.27472,,
1780,PLEASANTVILLE DR @ GUINEVERE ST,,29.75951,-95.27582,,
1781,GUINEVERE ST @ DEMAREE LN,,29.75961,-95.27747,,
1782,MUNN ST @ DEMAREE LN,,29.76124,-95.27809,,
1784,MARKET ST @ MC CARTY ST,,29.77224,-95.28368,,
1785,GELLHORN DR @ MARKET ST,,29.77126,-95.27282,,
1786,GELLHORN DR @ MARKET ST,,29.7743,-95.27276,,
1787,GELLHORN DR @ EAST FREEWAY,,29.77639,-95.27207,,
1788,GELLHORN DR @ EAST FREEWAY,,29.77953,-95.27142,,
1789,GELLHORN DR @ EAST FREEWAY,,29.78192,-95.27015,,
1790,GELLHORN DR @ LOOP,,29.7842,-95.26551,,
1791,GELLHORN DR @ WOODFOREST BLVD,,29.785435,-95.261619,,
1792,WOODFOREST BLVD @ DIVIDEND DR,,29.78462,-95.260406,,
1793,WALLISVILLE RD @ MANITOU DR,,29.79183,-95.26458,,
1794,WALLISVILLE RD @ MESA DR,,29.79241,-95.25922,,
1795,WALLISVILLE RD @ TRAILMOBILE DR,,29.79336,-95.25443,,
1796,WALLISVILLE RD @ OATES RD,,29.794812,-95.24641,,
1797,OATES RD @ WALLISVILLE RD,,29.79865,-95.24107,,
1798,OATES RD @ DEBRA RD,,29.80505,-95.24041,,
1799,OATES RD @ PANDORA ST,,29.80788,-95.24046,,
1800,OATES RD @ PENELOPE ST,,29.8101,-95.24046,,
1801,OATES RD @ OAK BROOK DR,,29.81221,-95.24048,,
1802,OATES RD @ OAK BROOK DR,,29.81239,-95.24062,,
1803,OATES RD @ PENELOPE ST,,29.81039,-95.24063,,
1804,OATES RD @ PANDORA ST,,29.80827,-95.24059,,
1805,OATES RD @ DEBRA RD,,29.80518,-95.24058,,
1806,OATES RD @ NEEDHAM ST,,29.80163,-95.24055,,
1807,OATES RD @ NEEDHAM ST,,29.79887,-95.2411,,
1809,WALLISVILLE RD @ TRAILMOBILE DR,,29.79364,-95.25411,,
1810,WALLISVILLE RD @ MESA DR,,29.79279,-95.25844,,
1811,WALLISVILLE RD @ MANITOU DR,,29.79205,-95.26421,,
1812,BRETON RIDGE DR @ FM 1960 RD,,29.966149,-95.539948,,
1813,FANNIN ST @ FRANKLIN ST,,29.762634,-95.359245,,
1814,FANNIN ST @ PRESTON ST,,29.761153,-95.36042,,
1815,FANNIN ST @ PRAIRIE ST,,29.760364,-95.361046,,
1816,FANNIN ST @ BELL ST,,29.752836,-95.367012,,
1817,FANNIN ST @ LEELAND ST,,29.752095,-95.367615,,
1818,FANNIN ST @ JEFFERSON ST,,29.750614,-95.36875,,
1819,FANNIN ST @ ST JOSEPH PKWY,,29.749877,-95.369338,,
1820,SAN JACINTO ST @ JEFFERSON ST,,29.749774,-95.367935,,
1821,SAN JACINTO ST @ PRAIRIE ST,,29.759543,-95.360214,,
1822,SAN JACINTO ST @ PRESTON ST,,29.760316,-95.359604,,
1823,SAN JACINTO ST @ FRANKLIN ST,,29.761623,-95.35856,,
1825,SAN JACINTO ST @ WOOD ST,,29.766476,-95.356415,,
1837,CAPITOL ST @ BAGBY ST,,29.762335,-95.368907,,
1841,FANNIN ST @ TEXAS AVE,,29.75961,-95.361651,,
1842,FANNIN ST @ CAPITOL ST,,29.75892,-95.36219,,
1843,FANNIN ST @ RUSK ST,,29.758066,-95.362871,,
1844,FANNIN ST @ WALKER ST,,29.757323,-95.363457,,
1845,FANNIN ST @ MC KINNEY ST,,29.756585,-95.364047,,
1846,FANNIN ST @ LAMAR ST,,29.755861,-95.364627,,
1847,FANNIN ST @ DALLAS ST,,29.755082,-95.365242,,
1848,FANNIN ST @ POLK ST,,29.754347,-95.365829,,
1849,FANNIN ST @ CLAY ST,,29.753684,-95.366349,,
1850,FANNIN ST @ PEASE ST,,29.751384,-95.368172,,
1851,FANNIN ST @ PIERCE ST,,29.749124,-95.369964,,
1852,SAN JACINTO ST @ ST JOSEPH PKWY,,29.749039,-95.36853,,
1853,SAN JACINTO ST @ BELL ST,,29.752015,-95.366173,,
1854,SAN JACINTO ST @ CLAY ST,,29.752767,-95.365578,,
1855,SAN JACINTO ST @ POLK ST,,29.753534,-95.364967,,
1856,SAN JACINTO ST @ DALLAS ST,,29.754278,-95.36438,,
1857,SAN JACINTO ST @ LAMAR ST,,29.755013,-95.363802,,
1858,SAN JACINTO ST @ MC KINNEY ST,,29.755746,-95.36322,,
1859,SAN JACINTO ST @ WALKER ST,,29.756466,-95.362605,,
1861,SAN JACINTO ST @ RUSK ST,,29.757238,-95.362032,,
1862,SAN JACINTO ST @ CAPITOL ST,,29.757997,-95.361419,,
1863,SAN JACINTO ST @ CONGRESS ST,,29.760944,-95.359093,,
1864,SAN JACINTO ST @ COMMERCE ST,,29.762506,-95.357857,,
1876,FRANKLIN ST @ FANNIN ST,,29.762543,-95.35955,,
1878,PRESTON ST @ SMITH ST,,29.763596,-95.36499,,
1891,WALKER ST @ CAROLINE ST,,29.756136,-95.361587,,
1892,WALKER ST @ SAN JACINTO ST,,29.756639,-95.362416,,
1893,WALKER ST @ FANNIN ST,,29.757155,-95.363266,,
1894,WALKER ST @ MAIN ST,,29.757689,-95.364159,,
1895,WALKER ST @ TRAVIS ST,,29.758216,-95.365036,,
1896,WALKER ST @ MILAM ST,,29.758735,-95.365906,,
1897,WALKER ST @ MILAM ST,,29.758982,-95.36631,,
1898,WALKER ST @ SMITH ST,,29.759783,-95.367622,,
1899,SAN JACINTO ST @ LEELAND ST,,29.751282,-95.366753,,
1900,ELGIN ST @ LOUISIANA ST,,29.743147,-95.379414,,
1901,LOUISIANA ST @ WEBSTER ST,,29.749403,-95.374632,,
1902,PIERCE ST @ CHENEVERT ST,,29.745327,-95.364151,,
1903,ST JOSEPH PKWY @ CHENEVERT ST,,29.746074,-95.363182,,
1904,ST JOSEPH PKWY @ CRAWFORD ST,,29.747117,-95.364922,,
1905,ST JOSEPH PKWY @ CAROLINE ST,,29.748661,-95.367485,,
1906,ST JOSEPH PKWY @ SAN JACINTO ST,,29.749179,-95.368339,,
1907,ST JOSEPH PKWY @ FANNIN ST,,29.749692,-95.369194,,
1908,ST JOSEPH PKWY @ MAIN ST,,29.750167,-95.370011,,
1909,ST JOSEPH PKWY @ TRAVIS ST,,29.750755,-95.370956,,
1916,DALLAS ST @ SMITH ST,,29.757546,-95.369738,,
1917,LAMAR ST @ BRAZOS ST,,29.758786,-95.369646,,
1920,GRAY ST @ BRAZOS ST,,29.751324,-95.375541,,
1925,ST JOSEPH PKWY @ LA BRANCH ST,,29.747624,-95.365776,,
1926,ST JOSEPH PKWY @ AUSTIN ST,,29.74814,-95.366623,,
1927,ST JOSEPH PKWY @ LOUISIANA ST,,29.751742,-95.372607,,
1928,JEFFERSON ST @ SMITH ST,,29.753049,-95.373239,,
1933,DALLAS ST @ BRAZOS ST,,29.75808,-95.3706,,
1934,DALLAS ST @ LOUISIANA ST,,29.75707,-95.368942,,
1935,DALLAS ST @ MILAM ST,,29.756537,-95.36806,,
1936,DALLAS ST @ TRAVIS ST,,29.756007,-95.367172,,
1937,DALLAS ST @ MAIN ST,,29.755485,-95.366298,,
1938,LAMAR ST @ CAROLINE ST,,29.75463,-95.362755,,
1939,LAMAR ST @ SAN JACINTO ST,,29.755142,-95.363601,,
1940,LAMAR ST @ FANNIN ST,,29.755666,-95.364464,,
1941,LAMAR ST @ MAIN ST,,29.7562,-95.365349,,
1942,LAMAR ST @ TRAVIS ST,,29.756732,-95.366226,,
1943,LAMAR ST @ MILAM ST,,29.757239,-95.367068,,
1944,LAMAR ST @ LOUISIANA ST,,29.757774,-95.367957,,
1945,LAMAR ST @ SMITH ST,,29.758285,-95.368807,,
1946,SAN JACINTO ST @ PIERCE ST,,29.748131,-95.369255,,
1947,COKE   @ FINNIGAN PARK PLACE CT,,29.767982,-95.32165,,
1948,COKE@FINNIGAN PARK PLACE CT,,29.7679,-95.31903,,
1949,CALLES ST @ ARAPAHOE ST,,29.770944,-95.31733,,
1950,CALLES ST @ MARKET ST,,29.77242,-95.31736,,
1951,MARKET ST @ LOCKWOOD DR,,29.772587,-95.315895,,
1952,NAVIGATION BLVD @ JENSEN DR,NAVIGATION BLVD & RUNNELS ST,29.759176,-95.346504,,
1953,CLINTON DR @ JENSEN DR,,29.76457,-95.34222,,
1954,CLINTON DR @ MEADOW ST,,29.764631,-95.339531,,
1955,CLINTON DR @ BAYOU ST,,29.76466,-95.33758,,
1956,CLINTON DR @ GREGG ST,,29.76469,-95.33581,,
1957,CLINTON DR @ BRINGHURST ST,,29.76472,-95.33383,,
1958,CLINTON DR @ BRINGHURST ST,,29.76531,-95.33185,,
1959,CLINTON DR @ BRINGHURST ST,,29.76535,-95.32985,,
1960,CLINTON DR @ HIRSCH RD,,29.76535,-95.32775,,
1961,CLINTON DR @ IDA,,29.76539,-95.32555,,
1962,CLINTON DR @ SCHWEIKHARDT ST,,29.765413,-95.323333,,
1963,CLINTON DR @ JAPHET ST,,29.76487,-95.32137,,
1964,CLINTON DR @ JAPHET ST,,29.76437,-95.31838,,
1965,CLINTON DR @ LOCKWOOD DR,,29.763655,-95.315888,,
1966,CLINTON DR @ LOCKWOOD DR,,29.76284,-95.31323,,
1967,CLINTON DR @ LOCKWOOD DR,,29.76223,-95.3111,,
1968,CLINTON DR @ KRESS ST,,29.761534,-95.30867,,
1969,CLINTON DR @ GAZIN,,29.76006,-95.3044,,
1970,CLINTON DR @ LATHROP ST,,29.75857,-95.30163,,
1971,CLINTON DR @ ARMOUR DR,,29.75809,-95.30072,,
1972,CLINTON DR @ ARMOUR DR,,29.757426,-95.299476,,
1973,CLINTON DR @ WAYSIDE DR,,29.756701,-95.295571,,
1974,CLINTON DR @ SSGT MACARIO GARCIA DR,,29.75772,-95.299281,,
1975,CLINTON DR @ LATHROP ST,,29.758649,-95.301078,,
1976,CLINTON DR @ GAZIN,,29.76026,-95.30424,,
1977,CLINTON DR @ KRESS ST,,29.761478,-95.307541,,
1978,CLINTON DR @ KRESS ST,,29.76199,-95.30935,,
1979,CLINTON DR @ KRESS ST,,29.7624,-95.31078,,
1980,CLINTON DR @ KRESS ST,,29.76312,-95.31329,,
1981,CLINTON DR @ LOCKWOOD DR,,29.763664,-95.315193,,
1982,CLINTON DR @ LOCKWOOD DR,,29.76411,-95.31697,,
1983,CLINTON DR @ LOCKWOOD DR,,29.76456,-95.31849,,
1984,CLINTON DR @ JAPHET ST,,29.7649,-95.32103,,
1985,CLINTON DR @ EMILE,,29.765552,-95.324084,,
1986,CLINTON DR @ IDA,,29.76552,-95.32602,,
1987,CLINTON DR @ JUDD ST,,29.76551,-95.32799,,
1988,CLINTON DR @ JUDD ST,,29.76548,-95.33012,,
1989,CLINTON DR @ JUDD ST,,29.76545,-95.33175,,
1990,CLINTON DR @ BRINGHURST ST,,29.76487,-95.33363,,
1991,CLINTON DR @ GREGG ST,,29.76484,-95.33546,,
1992,CLINTON DR @ BAYOU ST,,29.7648,-95.33717,,
1993,CLINTON DR @ MEADOW ST,,29.76477,-95.33928,,
1994,CLINTON DR @ MEADOW ST,,29.76472,-95.34199,,
1995,NAVIGATION BLVD @ WAYSIDE DR,,29.745127,-95.302735,,
1996,NAVIGATION BLVD @ CESAR CHAVEZ BLVD,,29.745816,-95.304628,,
1997,NAVIGATION BLVD @ TERMINAL ST,,29.746683,-95.307198,,
1998,NAVIGATION BLVD @ TERMINAL ST,,29.74734,-95.309281,,
1999,NAVIGATION BLVD @ MC FARLAND ST,,29.747738,-95.310844,,
2000,NAVIGATION BLVD @ MC FARLAND ST,,29.747965,-95.312889,,
2001,NAVIGATION BLVD @ PORTWOOD ST,,29.747936,-95.316452,,
2002,NAVIGATION BLVD @ BAYWOOD ST,,29.748461,-95.318115,,
2003,NAVIGATION BLVD @ ENGEL,,29.749982,-95.320065,,
2004,NAVIGATION BLVD @ BRYAN ST,,29.750596,-95.321923,,
2005,NAVIGATION BLVD @ SIDNEY ST,,29.753235,-95.328987,,
2006,NAVIGATION BLVD @ DRENNAN,,29.753538,-95.329971,,
2007,NAVIGATION BLVD @ MILBY ST,,29.754196,-95.33223,,
2008,NAVIGATION BLVD @ HUTCHESON ST,,29.754668,-95.333778,,
2009,NAVIGATION BLVD @ YORK ST,,29.754948,-95.334572,,
2010,NAVIGATION BLVD @ ENGELKE,,29.755416,-95.337188,,
2011,NAVIGATION BLVD @ PALMER ST,,29.755439,-95.339218,,
2012,NAVIGATION BLVD @ ENNIS ST,,29.755894,-95.339981,,
2013,NAVIGATION BLVD @ DELANO,,29.75693,-95.341743,,
2014,NAVIGATION BLVD @ LIVE OAK ST,,29.757844,-95.343292,,
2015,NAVIGATION BLVD @ ST CHARLES ST,,29.758317,-95.344085,,
2020,TIMMONS LN @ ALABAMA ST,,29.737466,-95.436661,,
2021,TIMMONS LN @ ALABAMA ST,,29.73608,-95.4366,,
2022,TIMMONS LN @ COLQUITT,,29.734016,-95.436531,,
2023,TIMMONS LN @ COLQUITT,,29.733857,-95.436363,,
2024,TIMMONS LN @ RICHMOND AVE,,29.73607,-95.43649,,
2025,TIMMONS LN @ ALABAMA ST,,29.737298,-95.436539,,
2027,BUFFALO SPEEDWAY   @ ALABAMA ST,,29.7359,-95.42995,,
2028,BUFFALO SPEEDWAY   @ SOUTHWEST FREE,BUFFALO SPEEDWAY & SOUTHWEST FREEWAY,29.731958,-95.428475,,
2029,POST OAK PARK DR @ BRIAR HOLLOW PL,,29.752444,-95.453949,,
2030,POST OAK PARK DR @ POST OAK PL,,29.750069,-95.453942,,
2031,POST OAK PARK DR @ POST OAK PKWY,,29.747831,-95.453881,,
2032,NB POST OAK PARK DR @ POST OAK PKWY,,29.748434,-95.453804,,
2033,POST OAK PARK DR @ POST OAK PLACE,POST OAK PARK DR & POST OAK PLACE DR,29.750643,-95.453809,,
2034,POST OAK PARK DR @ BRIAR HOLLOW PL,,29.752606,-95.453827,,
2043,SHEPHERD DR @ BRANARD ST,,29.73672,-95.41061,,
2044,SHEPHERD DR @ ALABAMA ST,,29.73837,-95.410622,,
2045,SHEPHERD DR @ HAROLD ST,,29.74035,-95.41064,,
2046,SHEPHERD DR @ WESTHEIMER RD,,29.742133,-95.410654,,
2047,SHEPHERD DR @ FAIRVIEW ST,,29.7446,-95.41058,,
2048,SHEPHERD DR @ INDIANA ST,,29.746828,-95.410578,,
2049,SHEPHERD DR @ VERMONT ST,,29.749006,-95.410612,,
2050,SHEPHERD DR @ PELHAM DR,,29.751059,-95.410644,,
2051,SHEPHERD DR @ GRAY ST,,29.752638,-95.410629,,
2052,SHEPHERD DR @ BRENTWOOD DR,,29.754092,-95.410675,,
2053,SHEPHERD DR @ MC DUFFIE ST,,29.755442,-95.409294,,
2054,SHEPHERD DR @ DALLAS ST,,29.756645,-95.408317,,
2055,SHEPHERD DR @ MEMORIAL DR,,29.76222,-95.40885,,
2056,SHEPHERD DR @ DICKSON,,29.76426,-95.40923,,
2057,SHEPHERD DR @ FEAGAN ST,,29.76601,-95.40933,,
2058,SHEPHERD DR @ BLOSSOM ST,,29.76746,-95.40936,,
2059,SHEPHERD DR @ ROSE ST,,29.76891,-95.40939,,
2060,SHEPHERD DR @ WASHINGTON AVE,,29.770343,-95.409416,,
2061,SHEPHERD DR @ CENTER ST,,29.77154,-95.40943,,
2062,SHEPHERD DR @ ELI,,29.77328,-95.40947,,
2063,SHEPHERD DR @ EIGEL,,29.77476,-95.4095,,
2064,SHEPHERD DR @ NOLDA ST,,29.77618,-95.40952,,
2065,WASHINGTON AVE @ PARKER ST,,29.770392,-95.408538,,
2066,WASHINGTON AVE @ PATTERSON ST,,29.77044,-95.40626,,
2067,WASHINGTON AVE @ THOMPSON ST,,29.770242,-95.404273,,
2068,WASHINGTON AVE @ JACKSON HILL ST,,29.76993,-95.40141,,
2069,WASHINGTON AVE @ HEIGHTS BLVD,,29.769362,-95.396441,,
2070,WASHINGTON AVE @ WAGNER ST,,29.76918,-95.39469,,
2071,WASHINGTON AVE @ STUDEMONT ST,,29.768894,-95.392079,,
2072,WASHINGTON AVE @ NATIONAL ST,,29.76865,-95.38843,,
2073,WASHINGTON AVE @ CUSTUS ST,,29.76847,-95.38634,,
2074,WASHINGTON AVE @ BRASHEAR ST,,29.76827,-95.38373,,
2075,WASHINGTON AVE @ TAYLOR ST,,29.768174,-95.381737,,
2076,WASHINGTON AVE @ HENDERSON ST,,29.76789,-95.37893,,
2077,WASHINGTON AVE @ SILVER ST,,29.76771,-95.37727,,
2078,WASHINGTON AVE @ COLORADO,,29.767451,-95.374748,,
2079,PRESTON ST @ ARTESIAN PL,,29.765973,-95.368919,,
2080,WASHINGTON AVE @ PRESTON ST,,29.766592,-95.369743,,
2081,WASHINGTON AVE @ HOUSTON AVE,,29.767309,-95.371933,,
2082,WASHINGTON AVE @ ASH PL,,29.767555,-95.374167,,
2083,WASHINGTON AVE @ SILVER ST,,29.76785,-95.37713,,
2084,WASHINGTON AVE @ HENDERSON ST,,29.76813,-95.37984,,
2085,WASHINGTON AVE @ TAYLOR ST,,29.768309,-95.381539,,
2086,WASHINGTON AVE @ BRASHEAR ST,,29.76842,-95.38375,,
2087,WASHINGTON AVE @ CUSTUS ST,,29.76864,-95.38653,,
2088,WASHINGTON AVE @ NATIONAL ST,,29.76881,-95.38859,,
2089,WASHINGTON AVE @ STUDEMONT ST,,29.769009,-95.391597,,
2090,WASHINGTON AVE @ WAGNER ST,,29.76935,-95.39479,,
2091,WASHINGTON AVE @ HEIGHTS BLVD,,29.769537,-95.396479,,
2092,WASHINGTON AVE @ YALE ST,,29.76981,-95.39906,,
2093,WASHINGTON AVE @ BONNER ST,,29.77014,-95.40209,,
2094,WASHINGTON AVE @ THOMPSON ST,,29.77033,-95.4039,,
2095,WASHINGTON AVE @ PATTERSON ST,,29.770597,-95.406445,,
2096,WASHINGTON AVE @ PARKER ST,,29.770576,-95.408276,,
2097,WASHINGTON AVE @ SHEPHERD DR,,29.770526,-95.409363,,
2098,HEIGHTS BLVD @ 2ND ST,,29.77436,-95.39757,,
2099,HEIGHTS BLVD @ 2ND ST,,29.77279,-95.39752,,
2100,HEIGHTS BLVD @ 2ND ST,,29.7716,-95.39751,,
2101,HEIGHTS BLVD @ CENTER ST,,29.77054,-95.39749,,
2102,HEIGHTS BLVD @ BARNES ST,,29.76877,-95.39726,,
2103,HEIGHTS BLVD @ FEAGAN ST,,29.76664,-95.39742,,
2104,WAUGH DR @ ALLEN PKWY,,29.760517,-95.398312,,
2105,WAUGH DR @ D'AMICO ST,,29.759663,-95.398262,,
2106,WAUGH DR @ DALLAS ST,,29.757712,-95.398253,,
2107,WAUGH DR @ BELL ST,,29.75484,-95.39815,,
2108,WILCREST DR @ ROARK RD,,29.65042,-95.567001,,
2109,WILCREST DR @ STANCLIFF RD,,29.659159,-95.569626,,
2110,WILCREST DR @ ROCKLEY RD,,29.664324,-95.568558,,
2111,WILCREST DR @ SOUTH DR,,29.666824,-95.568814,,
2112,WILCREST DR @ CONCHO ST,,29.693083,-95.570938,,
2113,WALNUT BEND LN @ WESTHEIMER RD,,29.73606,-95.56683,,
2114,WESTHEIMER RD @ CITYWEST BLVD,,29.737052,-95.561897,,
2115,WILCREST DR @ OLYMPIA DR,,29.742788,-95.571869,,
2116,WILCREST DR @ FRANCOISE BLVD,,29.74502,-95.571907,,
2117,WILCREST DR @ BRIAR FOREST DR,,29.747616,-95.571937,,
2118,WILCREST DR @ APPLE TREE RD,,29.769353,-95.575379,,
2119,WILCREST DR @ SANDY SPRING RD,,29.754538,-95.57454,,
2120,34TH ST @ OAK FOREST DR,,29.817323,-95.436213,,
2121,34TH ST @ PINEY WOODS DR,,29.817324,-95.441094,,
2122,34TH ST @ TC JESTER BLVD,,29.817315,-95.44397,,
2123,34TH ST @ TC JESTER BLVD,,29.817313,-95.445846,,
2124,34TH ST @ VOLLMER RD,,29.817336,-95.449822,,
2125,34TH ST @ HELBERG RD,,29.818086,-95.453445,,
2126,34TH ST @ HELBERG RD,,29.819527,-95.457069,,
2127,34TH ST @ MANGUM RD,,29.819725,-95.459228,,
2128,34TH ST @ MANGUM RD,,29.819681,-95.461098,,
2129,34TH ST @ NORTHWEST FREEWAY,,29.819602,-95.467301,,
2131,SMITH ST @ HOLMAN ST,,29.742215,-95.381752,,
2132,MAIN ST @ PRESSLER ST,,29.704033,-95.406659,,
2133,MAIN ST @ UNIVERSITY BLVD,,29.71341,-95.39925,,
2134,MAIN ST @ UNIVERSITY BLVD,,29.71476,-95.398178,,
2138,RICHMOND AVE @ TIMMONS LN,,29.732837,-95.43618,,
2141,MC KINNEY ST @ LA BRANCH ST,,29.754383,-95.360771,,
2158,MAIN ST @ MC KINNEY ST,,29.756811,-95.364975,,
2162,MC KINNEY ST @ MILAM ST,,29.758009,-95.366844,,
2163,MC KINNEY ST @ TRAVIS ST,,29.757488,-95.365974,,
2164,MC KINNEY ST @ MAIN ST,,29.756958,-95.365097,,
2165,MC KINNEY ST @ MAIN ST,,29.75659,-95.364519,,
2166,MC KINNEY ST @ SAN JACINTO ST,,29.755918,-95.363373,,
2167,MC KINNEY ST @ CAROLINE ST,,29.755393,-95.362503,,
2168,MC KINNEY ST @ AUSTIN ST,,29.754878,-95.361656,,
2169,LOUISIANA ST @ JEFFERSON ST,,29.752373,-95.372261,,
2170,LOUISIANA ST @ PEASE ST,,29.753135,-95.371666,,
2171,LOUISIANA ST @ LEELAND ST,,29.753873,-95.371079,,
2172,LOUISIANA ST @ BELL ST,,29.754619,-95.370484,,
2173,LOUISIANA ST @ CLAY ST,,29.75538,-95.369887,,
2174,LOUISIANA ST @ POLK ST,,29.756107,-95.369308,,
2175,LOUISIANA ST @ DALLAS ST,,29.756868,-95.368706,,
2176,LOUISIANA ST @ LAMAR ST,,29.757609,-95.368118,,
2177,LOUISIANA ST @ MC KINNEY ST,,29.758358,-95.367523,,
2178,LOUISIANA ST @ WALKER ST,,29.759101,-95.366928,,
2179,LOUISIANA ST @ RUSK ST,,29.759842,-95.36634,,
2180,LOUISIANA ST @ CAPITOL ST,,29.760577,-95.365761,,
2181,LOUISIANA ST @ TEXAS AVE,,29.761374,-95.365135,,
2182,LOUISIANA ST @ PRAIRIE ST,,29.762139,-95.364532,,
2183,LOUISIANA ST @ PRESTON ST,,29.762829,-95.363994,,
2184,LOUISIANA ST @ CONGRESS ST,,29.763667,-95.363329,,
2209,LOUISIANA ST @ ELGIN ST,,29.743036,-95.379631,,
2210,LOUISIANA ST @ ROSALIE ST,,29.743658,-95.379151,,
2211,LOUISIANA ST @ TUAM ST,,29.744927,-95.378143,,
2212,LOUISIANA ST @ MC GOWEN ST,,29.746764,-95.376722,,
2213,LOUISIANA ST @ HADLEY ST,,29.748698,-95.375168,,
2214,LOUISIANA ST @ GRAY ST,,29.750145,-95.374024,,
2215,LOUISIANA ST @ PIERCE ST,,29.750897,-95.373451,,
2216,LOUISIANA ST @ ST JOSEPH PKWY,,29.751631,-95.372833,,
2217,PIERCE ST @ SAN JACINTO ST,,29.74848,-95.369331,,
2218,MILAM ST @ CONGRESS ST,,29.763437,-95.36245,,
2219,MILAM ST @ PRESTON ST,,29.762683,-95.363052,,
2220,MILAM ST @ JEFFERSON ST,,29.75217,-95.371399,,
2221,MILAM ST @ ST JOSEPH PKWY,,29.751449,-95.371971,,
2222,MILAM ST @ PIERCE ST,,29.75071,-95.372535,,
2223,TRAVIS ST @ ST JOSEPH PKWY,,29.75059,-95.37117,,
2224,TRAVIS ST @ JEFFERSON ST,,29.751342,-95.37056,,
2225,TRAVIS ST @ PEASE ST,,29.752115,-95.369949,,
2226,TRAVIS ST @ LEELAND ST,,29.752885,-95.369354,,
2227,TRAVIS ST @ BELL ST,,29.753494,-95.368866,,
2228,TRAVIS ST @ CLAY ST,,29.754262,-95.368263,,
2229,TRAVIS ST @ PRESTON ST,,29.761915,-95.362171,,
2230,TRAVIS ST @ CONGRESS ST,,29.76263,-95.36161,,
2231,TRAVIS ST @ FRANKLIN ST,,29.763236,-95.361135,,
2233,SMITH ST @ PRESTON ST,,29.763723,-95.364786,,
2234,SMITH ST @ TEXAS AVE,,29.762225,-95.365959,,
2235,SMITH ST @ CLAY ST,,29.756167,-95.37075,,
2236,SMITH ST @ BELL ST,,29.755353,-95.371382,,
2237,SMITH ST @ PEASE ST,,29.754745,-95.371879,,
2238,BAGBY ST @ MC KINNEY ST,,29.759908,-95.370109,,
2239,BAGBY ST @ WALKER ST,,29.760619,-95.369547,,
2240,BAGBY ST @ CAPITOL ST,,29.761957,-95.368355,,
2241,BAGBY ST @ PRESTON ST,,29.76449,-95.36659,,
2242,BAGBY ST @ WALKER ST,,29.760947,-95.369479,,
2243,BAGBY ST @ MC KINNEY ST,,29.76022,-95.37006,,
2244,BAGBY ST @ W DALLAS ST,,29.758719,-95.371224,,
2245,DALLAS ST @ CLAY ST,,29.757889,-95.372559,,
2246,MILAM ST @ PRAIRIE ST,,29.761945,-95.36364,,
2247,MILAM ST @ TEXAS AVE,,29.76121,-95.364227,,
2248,MILAM ST @ CAPITOL ST,,29.760429,-95.36486,,
2249,MILAM ST @ RUSK ST,,29.75965,-95.365464,,
2250,MILAM ST @ WALKER ST,,29.758928,-95.366036,,
2251,MILAM ST @ MC KINNEY ST,,29.75819,-95.36663,,
2252,MILAM ST @ LAMAR ST,,29.757433,-95.367226,,
2253,MILAM ST @ DALLAS ST,,29.756648,-95.367843,,
2254,MILAM ST @ POLK ST,,29.755936,-95.368416,,
2255,MILAM ST @ CLAY ST,,29.755219,-95.36898,,
2256,MILAM ST @ BELL ST,,29.754425,-95.369614,,
2257,MILAM ST @ LEELAND ST,,29.753698,-95.370186,,
2258,MILAM ST @ PEASE ST,,29.752927,-95.370796,,
2259,TRAVIS ST @ DALLAS ST,,29.755789,-95.367035,,
2260,TRAVIS ST @ LAMAR ST,,29.756314,-95.366574,,
2261,TRAVIS ST @ MC KINNEY ST,,29.75734,-95.365807,,
2262,TRAVIS ST @ WALKER ST,,29.758067,-95.365235,,
2263,TRAVIS ST @ RUSK ST,,29.758819,-95.364632,,
2264,TRAVIS ST @ CAPITOL ST,,29.759554,-95.364052,,
2265,TRAVIS ST @ TEXAS AVE,,29.760308,-95.363457,,
2266,TRAVIS ST @ PRAIRIE ST,,29.761132,-95.362793,,
2268,SMITH ST @ PRAIRIE ST,,29.763057,-95.365296,,
2269,SMITH ST @ CAPITOL ST,,29.761422,-95.366585,,
2270,SMITH ST @ RUSK ST,,29.760676,-95.367187,,
2271,SMITH ST @ WALKER ST,,29.759938,-95.367767,,
2272,SMITH ST @ MC KINNEY ST,,29.759197,-95.368355,,
2273,SMITH ST @ LAMAR ST,,29.758441,-95.368958,,
2274,SMITH ST @ DALLAS ST,,29.757692,-95.369545,,
2275,SMITH ST @ POLK ST,,29.756706,-95.370331,,
2276,SMITH ST @ PEASE ST,,29.753961,-95.372498,,
2278,SMITH ST @ JEFFERSON ST,,29.753266,-95.373047,,
2280,SMITH ST @ ST JOSEPH PKWY,,29.752482,-95.373673,,
2281,SMITH ST @ PIERCE ST,,29.751729,-95.374283,,
2282,BAGBY ST @ LAMAR ST,,29.759162,-95.370689,,
2283,BAGBY ST @ CAPITOL ST,,29.762723,-95.368098,,
2284,TRAVIS ST @ POLK ST,,29.755007,-95.367655,,
2285,BAGBY ST @ ALLEN PKWY,,29.759461,-95.370684,,
2286,MAIN ST @ SUNSET BLVD,,29.720342,-95.393768,,
2287,MAIN ST @ REMINGTON LN,,29.72294,-95.39172,,
2289,MAIN ST @ UNIVERSITY BLVD,,29.711259,-95.40091,,
2290,MAIN ST @ DRYDEN RD,,29.710103,-95.401802,,
2291,HOLCOMBE BLVD @ MD ANDERSON ST,,29.706072,-95.39637,,
2297,RICHMOND AVE @ EDLOE ST,,29.732943,-95.434493,,
2298,RICHMOND AVE @ TIMMONS LN,,29.732594,-95.435441,,
2299,RICHMOND AVE @ EDLOE ST,,29.733008,-95.432785,,
2300,RICHMOND AVE @ GREENWAY DR,,29.733624,-95.430382,,
2301,19TH ST @ ASHLAND ST,,29.80296,-95.40319,,
2302,20TH ST @ ASHLAND ST,,29.80394,-95.40446,,
2303,GESSNER RD @ HANKA DR,,29.795934,-95.544579,,
2304,GESSNER RD @ HAZELHURST DR,,29.797523,-95.544632,,
2305,GESSNER RD @ LAZY OAKS ST,,29.799122,-95.54467,,
2307,RICHEY ST @ LAUREL CREEK WAY,,29.67868,-95.22995,,
2308,RICHEY ST @ QUEENS RD,,29.676187,-95.232504,,
2309,RICHEY ST @ FLAGSTONE TERRACE,,29.67413,-95.23466,,
2310,RICHEY ST @ FOREST OAKS BLVD,,29.67039,-95.24011,,
2311,WINKLER DR @ GALVESTON RD,,29.670275,-95.243434,,
2312,WINKLER DR @ STATE ST,,29.670233,-95.245811,,
2313,WINKLER DR @ MAIN ST,,29.67041,-95.249367,,
2314,WINKLER DR @ SURREY SQUARE,,29.670415,-95.252098,,
2315,WINKLER DR @ BROOKGLEN DR,,29.670375,-95.254517,,
2316,WINKLER DR @ EASTHAVEN BLVD,,29.670324,-95.257896,,
2317,WINKLER DR @ BENDELL ST,,29.672812,-95.26296,,
2318,WINKLER DR @ ELROD,,29.67416,-95.26427,,
2319,WINKLER DR @ BARKLEY DR,,29.675845,-95.26593,,
2320,HOWARD DR @ WINKLER DR,,29.67689,-95.26605,,
2321,HOWARD DR @ BLISS ST,,29.6783,-95.26419,,
2322,HOWARD DR @ ARIZONA ST,,29.68011,-95.26177,,
2323,HOWARD DR @ RADCLIFFE ST,,29.68156,-95.25984,,
2324,HOWARD DR @ NEAL ST,,29.68292,-95.25803,,
2325,HOWARD DR @ ALASKA ST,,29.68464,-95.2557,,
2326,GALVESTON RD @ AHRENS ST,,29.684064,-95.254466,,
2328,GULF FREEWAY   @ NILES ST,,29.68286,-95.27448,,
2329,GULF FREEWAY   @ LYNN ST,,29.68476,-95.27619,,
2330,BROADWAY ST @ PARK PLACE BLVD,,29.683825,-95.277537,,
2331,BROADWAY ST @ DIXIE DR,,29.68203,-95.27748,,
2332,BROADWAY ST @ SANTA ELENA ST,,29.67718,-95.277401,,
2333,BROADWAY ST @ SANTA ELENA ST,,29.67505,-95.27732,,
2334,BROADWAY ST @ BELLFORT AVE,BROADWAY ST & BELLFORT ST,29.67256,-95.27725,,
2335,BROADWAY ST @ BELLFORT AVE,BROADWAY ST & BELLFORT ST,29.669871,-95.277178,,
2336,BROADWAY ST @ BELLFORT AVE,BROADWAY ST & BELLFORT ST,29.667445,-95.27711,,
2337,BROADWAY ST @ ROCKHILL ST,,29.665652,-95.277064,,
2338,BROADWAY ST @ ROCKHILL ST,,29.662268,-95.276965,,
2342,GLENCREST ST @ AIRPORT BLVD,,29.658891,-95.27228,,
2343,MORLEY ST @ GLENCREST ST,,29.661491,-95.273257,,
2344,MORLEY ST @ BROADWAY ST,,29.661439,-95.275943,,
2345,BROADWAY ST @ MORLEY ST,,29.662264,-95.276706,,
2346,BROADWAY ST @ MORLEY ST,,29.663453,-95.276728,,
2347,BROADWAY ST @ ROCKHILL ST,,29.665218,-95.276781,,
2348,BROADWAY ST @ ROCKHILL ST,,29.667142,-95.276837,,
2349,BROADWAY ST @ ROCKHILL ST,,29.669731,-95.276911,,
2350,BROADWAY ST @ BELLFORT AVE,BROADWAY ST & BELLFORT ST,29.67224,-95.27698,,
2351,BROADWAY ST @ BELLFORT AVE,BROADWAY ST & BELLFORT ST,29.673964,-95.277026,,
2352,BROADWAY ST @ BELLFORT AVE,BROADWAY ST & BELLFORT ST,29.6757,-95.27708,,
2353,BROADWAY ST @ SANTA ELENA ST,,29.67691,-95.2771,,
2354,BROADWAY ST @ DIXIE DR,,29.681718,-95.277239,,
2355,BROADWAY ST @ PARK PLACE BLVD,,29.683395,-95.277285,,
2356,BELLFORT AVE @ GLEN VALLEY DR,,29.67237,-95.27531,,
2357,BELLFORT AVE @ GLENCREST ST,,29.67312,-95.27104,,
2358,BELLFORT AVE @ STONE ST,,29.674274,-95.269508,,
2359,BELLFORT AVE @ STONE ST,,29.674634,-95.269422,,
2360,BELLFORT AVE @ STONE ST,,29.67339,-95.27104,,
2361,BELLFORT AVE @ BROADWAY ST,,29.672473,-95.277649,,
2363,BELLFORT AVE @ GLENLOCH DR,,29.672415,-95.281319,,
2364,BELLFORT AVE @ GLENLOCH DR,,29.672419,-95.284622,,
2365,BELLFORT AVE @ TELEPHONE RD,,29.672845,-95.287773,,
2366,BELLFORT AVE @ TELEPHONE RD,,29.673812,-95.291176,,
2367,BELLFORT AVE @ LANCASTER ST,,29.673617,-95.295486,,
2368,BELLFORT AVE @ WESTOVER ST,,29.672861,-95.300079,,
2369,BELLFORT AVE @ WALTRIP ST,,29.671738,-95.302147,,
2370,BELLFORT AVE @ PLAINVIEW ST,,29.669865,-95.304688,,
2371,BELLFORT AVE @ WESTOVER ST,,29.668847,-95.306679,,
2372,BELLFORT AVE @ NUNN ST,,29.668269,-95.308574,,
2373,BELLFORT AVE @ LEDBETTER ST,,29.667702,-95.311122,,
2374,BELLFORT AVE @ NORTHDALE ST,,29.667254,-95.313065,,
2375,BELLFORT AVE @ CROSSWELL AVE,,29.666575,-95.31716,,
2376,BEAMER RD @ SAGEORCHARD LN,,29.594415,-95.224777,,
2377,BEAMER RD @ HALL RD,,29.596699,-95.227348,,
2378,BEAMER RD @ KIRKFAIR DR,,29.599332,-95.228426,,
2379,BEAMER RD @ KIRKVALLEY DR,,29.602386,-95.228569,,
2380,BEAMER RD @ KIRKMEADOW DR,,29.603923,-95.228432,,
2381,BEAMER RD @ KIRKSHIRE DR,,29.605446,-95.228287,,
2382,BEAMER RD @ KIRKHOLM DR,,29.608851,-95.227959,,
2383,BEAMER RD @ FUQUA ST,,29.610998,-95.227784,,
2384,FUQUA ST @ BEAMER RD,,29.611447,-95.225189,,
2385,SABO RD @ FUQUA ST,,29.612868,-95.223259,,
2386,SABO RD @ WHITE CLOVER DR,,29.614355,-95.224794,,
2387,SABO RD @ RAMBLING TRL,,29.616865,-95.227825,,
2388,KINGSPOINT RD @ SABO RD,,29.619266,-95.229629,,
2389,BAY AREA BLVD @ GEMINI AVE,GEMINI AVE & FEATHER CRAFT LN,29.549713,-95.124195,,
2390,BAY AREA BLVD @ GEMINI AVE,,29.549469,-95.124632,,
2391,JOHN F KENNEDY SERVICE RD @ GREENS,JOHN F KENNEDY SERVICE RD & GREENS RD,29.961856,-95.333267,,
2392,JOHN F KENNEDY SERVICE RD @ GREENS,JOHN F KENNEDY SERVICE RD & GREENS RD,29.963953,-95.334503,,
2393,JOHN F KENNEDY SERVICE RD @ GREENS,JOHN F KENNEDY SERVICE RD & GREENS RD,29.965479,-95.335467,,
2399,WRIGHT RD @ COLONEL FISHER BLVD,,29.986883,-95.319695,,
2400,WRIGHT RD @ COLONEL FISHER BLVD,,29.986886,-95.3218,,
2401,WRIGHT RD @ CHELSEA,,29.986881,-95.325102,,
2402,WRIGHT RD @ WILL CLAYTON PKWY,,29.986001,-95.327477,,
2404,JOHN F KENNEDY SERVICE RD @ PALLET,JOHN F KENNEDY SERVICE RD & PALLET RD,29.97347,-95.341606,,
2405,JOHN F KENNEDY SERVICE RD @ PALLET,JOHN F KENNEDY SERVICE RD & PALLET RD,29.969637,-95.339249,,
2406,JOHN F KENNEDY SERVICE RD @ PALLET,JOHN F KENNEDY SERVICE RD & PALLET RD,29.967035,-95.337669,,
2407,JOHN F KENNEDY SERVICE RD @ PALLET,JOHN F KENNEDY SERVICE RD & PALLET RD,29.965105,-95.336502,,
2408,JOHN F KENNEDY SERVICE RD @ PALLET,JOHN F KENNEDY SERVICE RD & PALLET RD,29.962947,-95.335167,,
2409,JOHN F KENNEDY SERVICE RD @ RANKIN,JOHN F KENNEDY SERVICE RD & RANKIN RD,29.960815,-95.333896,,
2410,BUSH IAH TERMINAL C,TERMINAL RD & TERMINAL C,29.986028,-95.337923,,
2411,JOHN F KENNEDY BLVD @ WORLD HOUSTON,JOHN F KENNEDY BLVD & WORLD HOUSTON PKWY,29.94076,-95.331797,,
2412,WAYSIDE DR @ GULF FREEWAY,,29.71657,-95.314628,,
2413,WAYSIDE DR @ SYLVAN RD,,29.71862,-95.31358,,
2414,WAYSIDE DR @ ROCKBRIDGE LN,,29.72005,-95.31298,,
2415,WAYSIDE DR @ WILDWOOD WAY,,29.72232,-95.31206,,
2416,WAYSIDE DR @ LAWNDALE ST,,29.72505,-95.31093,,
2417,WAYSIDE DR @ LAWNDALE ST,,29.727517,-95.30994,,
2418,WAYSIDE DR @ JAMAIL DR,,29.72959,-95.30913,,
2419,69TH ST @ POLK ST,,29.73343,-95.30739,,
2420,69TH ST @ HARRISBURG BLVD,,29.735849,-95.304443,,
2421,SSGT MACARIO GARCIA DR @ AVENUE C,,29.73752,-95.303719,,
2422,SSGT MACARIO GARCIA DR @ AVENUE E,,29.73889,-95.303169,,
2423,SSGT MACARIO GARCIA DR @ CANAL ST,,29.7403,-95.30257,,
2424,SSGT MACARIO GARCIA DR @ AVENUE J,,29.74205,-95.30185,,
2425,SSGT MACARIO GARCIA DR @ AVENUE K,,29.74296,-95.30148,,
2426,SSGT MACARIO GARCIA DR @ NAVIGATION,SSGT MACARIO GARCIA DR & NAVIGATION BLVD,29.744227,-95.300938,,
2427,BROADWAY ST @ PARK TERRACE BLVD,,29.70101,-95.27797,,
2428,BROADWAY ST @ BROCKTON ST,,29.69913,-95.27793,,
2429,BROADWAY ST @ CONCORD,,29.69798,-95.2779,,
2430,BROADWAY ST @ DETROIT ST,,29.69581,-95.27783,,
2431,BROADWAY ST @ FINDLAY,,29.69368,-95.27778,,
2432,BROADWAY ST @ HARTFORD ST,,29.69148,-95.27777,,
2433,BROADWAY ST @ JOPLIN ST,,29.68932,-95.27766,,
2434,BROADWAY ST @ KINGSLEY ST,,29.68744,-95.27761,,
2435,BROADWAY ST @ GULF FREEWAY,,29.68638,-95.27737,,
2436,BROADWAY ST @ JOPLIN ST,,29.68906,-95.27748,,
2437,BROADWAY ST @ HARTFORD ST,,29.69125,-95.27753,,
2438,BROADWAY ST @ FINDLAY,,29.69343,-95.27759,,
2439,BROADWAY ST @ DETROIT ST,,29.695539,-95.277651,,
2440,DETROIT ST @ BROADWAY ST,,29.69568,-95.27732,,
2441,DETROIT ST @ HASTINGS ST,,29.69573,-95.27503,,
2442,DETROIT ST @ IOLA,,29.695326,-95.271959,,
2443,DETROIT ST @ JENNINGS ST,,29.69422,-95.26886,,
2444,DETROIT ST @ PARK PLACE BLVD,,29.693935,-95.266489,,
2445,PARK PLACE BLVD @ DETROIT ST,,29.69305,-95.26756,,
2446,PARK PLACE BLVD @ FINDLAY,,29.691451,-95.269706,,
2447,PARK PLACE BLVD @ HARTFORD ST,,29.68938,-95.27245,,
2448,PARK PLACE BLVD @ HASTINGS ST,,29.68785,-95.27449,,
2449,PARK PLACE BLVD @ GULF FREEWAY,,29.68632,-95.27652,,
2450,PARK PLACE BLVD @ MERIDIAN DR,,29.68671,-95.2758,,
2451,PARK PLACE BLVD @ RIVER DR,,29.68754,-95.2747,,
2452,PARK PLACE BLVD @ RIVER DR,,29.68897,-95.27279,,
2453,PARK PLACE BLVD @ FINDLAY,,29.691215,-95.269809,,
2454,PARK PLACE BLVD @ FINDLAY,,29.69287,-95.267596,,
2455,DETROIT ST @ PARK PLACE BLVD,,29.69411,-95.266574,,
2456,DETROIT ST @ JENNINGS ST,,29.69428,-95.26868,,
2457,DETROIT ST @ HASTINGS ST,,29.69583,-95.2748,,
2458,DETROIT ST @ BROADWAY ST,,29.69577,-95.27752,,
2459,BROADWAY ST @ CONCORD,,29.69776,-95.27771,,
2460,BROADWAY ST @ BROCKTON ST,,29.69905,-95.27774,,
2461,BROADWAY ST @ PARK TERRACE BLVD,,29.70113,-95.2778,,
2462,WOODBINE ST @ BOBOLINK,,29.68408,-95.23891,,
2463,WOODBINE ST @ SWEETBRIAR ST,,29.68647,-95.23894,,
2464,WOODBINE ST @ PRIMROSE AVE,,29.68795,-95.23896,,
2465,WOODBINE ST @ WOODLARK,,29.68938,-95.23898,,
2466,WOODBINE ST @ EL BUEY WAY,,29.69093,-95.23899,,
2467,EL BUEY WAY @ FOREST OAKS BLVD,,29.691041,-95.241412,,
2468,EL BUEY WAY @ AUBERT,,29.69226,-95.24467,,
2469,EL BUEY WAY @ OGILVIE AVE,,29.69345,-95.24572,,
2470,OGILVIE AVE @ ROSA ALLEN DR,,29.69186,-95.24831,,
2471,ROSA ALLEN DR @ AUBERT,,29.69063,-95.24738,,
2472,ROSA ALLEN DR @ ORIOLE,,29.68929,-95.24598,,
2473,AHRENS ST @ ORIOLE,,29.68809,-95.24532,,
2474,HOWARD DR @ SWEETBRIAR ST,,29.68618,-95.24392,,
2476,FOREST OAKS BLVD @ ALLENDALE RD,,29.68348,-95.24281,,
2477,ALLENDALE RD @ CRIPPLE CREEK CT,,29.683122,-95.246087,,
2478,ALLENDALE RD @ PEACH CREEK DR,,29.681968,-95.249039,,
2479,ALLENDALE RD @ PEACH CREEK DR,,29.68203,-95.25082,,
2480,GALVESTON RD @ AHRENS ST,,29.684,-95.25413,,
2481,HOWARD DR @ ALASKA ST,,29.68461,-95.25603,,
2482,HOWARD DR @ NEAL ST,,29.68318,-95.25797,,
2483,HOWARD DR @ RADCLIFFE ST,,29.68182,-95.25977,,
2484,HOWARD DR @ ARIZONA ST,,29.68036,-95.26171,,
2485,HOWARD DR @ BLISS ST,,29.67854,-95.26415,,
2486,WINKLER DR @ HOWARD DR,,29.676891,-95.266937,,
2487,WINKLER DR @ GLENVIEW DR,,29.67787,-95.26917,,
2488,WINKLER DR @ BARKLEY DR,,29.67603,-95.26631,,
2489,WINKLER DR @ ELROD,,29.67408,-95.26437,,
2490,WINKLER DR @ BENDELL ST,,29.672865,-95.263184,,
2491,WINKLER DR @ GARLAND DR,,29.671804,-95.262131,,
2492,WINKLER DR @ EASTHAVEN BLVD,,29.670119,-95.258148,,
2493,WINKLER DR @ BROOKGLEN DR,,29.670171,-95.254783,,
2494,WINKLER DR @ SURREY SQUARE,,29.670212,-95.252343,,
2495,WINKLER DR @ MAIN ST,,29.670251,-95.249695,,
2496,WINKLER DR @ STATE ST,,29.670045,-95.246063,,
2497,WINKLER DR @ GALVESTON RD,,29.670101,-95.243073,,
2498,RICHEY ST @ FOREST OAKS BLVD,,29.67015,-95.24031,,
2499,FLAGSTONE TERRACE   @ RICHEY ST,,29.674518,-95.235214,,
2500,FLAGSTONE TERRACE   @ WOOD CREEK WA,FLAGSTONE TERRACE & WOOD CREEK WAY,29.67613,-95.23614,,
2501,FLAGSTONE TERRACE   @ LAUREL CREEK,FLAGSTONE TERRACE & LAUREL CREEK WAY,29.67919,-95.23593,,
2502,FLAGSTONE TERRACE   @ TURTLE CREEK,FLAGSTONE TERRACE & TURTLE CREEK RD,29.68159,-95.23595,,
2503,FLAGSTONE TERRACE   @ ALLENDALE RD,,29.68317,-95.23613,,
2504,ALLENDALE RD @ GALVESTON RD,,29.68191,-95.25115,,
2505,ALLENDALE RD @ PEACH CREEK DR,,29.68174,-95.24915,,
2506,ALLENDALE RD @ CRIPPLE CREEK DR,,29.68246,-95.24707,,
2507,ALLENDALE RD @ FOREST OAKS BLVD,,29.68319,-95.24313,,
2508,ALLENDALE RD @ HOWARD DR,,29.683212,-95.240689,,
2510,ALLENDALE RD @ FLAGSTONE TERRACE,,29.68325,-95.23632,,
2511,ALLENDALE RD @ SEAGULL ST,,29.68327,-95.2346,,
2512,ALLENDALE RD @ FERNCREEK LN,,29.68328,-95.23306,,
2513,ALLENDALE RD @ ALLEN GENOA RD,,29.68325,-95.22965,,
2514,BAYBROOK MALL,GULF FREEWAY & BAYBROOK MALL ST,29.54346,-95.145096,,
2515,BAY AREA PARK & POOL,BAY AREA BLVD,29.541301,-95.139471,,
2516,FEATHER CRAFT LN @ GEMINI AVE,,29.551256,-95.122699,,
2517,GEMINI AVE @ APOLLO,,29.55125,-95.118309,,
2518,GEMINI AVE @ EL CAMINO REAL,,29.552004,-95.116104,,
2519,GEMINI AVE @ DIANA LN,,29.556224,-95.113869,,
2520,SATURN LN @ SECOND ST,,29.552432,-95.095169,,
2521,SATURN LN @ SECOND ST,,29.551872,-95.093514,,
2522,GEMINI AVE @ DIANA LN,,29.556639,-95.113847,,
2523,GEMINI AVE @ EL CAMINO REAL,,29.552385,-95.116127,,
2524,GEMINI AVE @ APOLLO,,29.551437,-95.118081,,
2525,GEMINI AVE @ FEATHER CRAFT LN,,29.550538,-95.12197,,
2526,BAY AREA PARK & POOL,BAY AREA BLVD & GULF FREEWAY,29.541603,-95.139558,,
2527,ALMEDA GENOA RD @ KLECKLEY DR,,29.627466,-95.230827,,
2528,KLECKLEY DR @ ALMEDA GENOA RD,,29.625337,-95.22977,,
2533,ALMEDA GENOA RD @ CLEARWOOD ST,,29.627288,-95.248283,,
2564,ALMEDA GENOA RD @ WINDMILL LAKES BL,ALMEDA GENOA RD & WINDMILL LAKES BLVD,29.627355,-95.240852,,
2565,ALMEDA GENOA RD @ ROWLETT RD,,29.627506,-95.234283,,
2568,KLECKLEY DR @ KINGSPOINT RD,,29.61947,-95.229752,,
2569,SABO RD @ RAMBLING TRL,,29.616934,-95.228104,,
2570,SABO RD @ WHITE CLOVER DR,,29.614396,-95.225087,,
2571,SABO RD @ FUQUA ST,,29.61235,-95.223248,,
2572,FUQUA ST @ SABO RD,,29.611773,-95.224747,,
2573,BEAMER RD @ FUQUA ST,,29.610667,-95.228058,,
2574,BEAMER RD @ KIRKHOLM DR,,29.609127,-95.228195,,
2575,BEAMER RD @ KIRKSHIRE DR,,29.605741,-95.228523,,
2576,BEAMER RD @ KIRKMEADOW DR,,29.604191,-95.228669,,
2577,BEAMER RD @ KIRKVALLEY DR,,29.60261,-95.228814,,
2578,BEAMER RD @ KIRKFAIR DR,,29.5997,-95.228767,,
2579,BEAMER RD @ HALL RD,,29.596704,-95.227913,,
2580,BEAMER RD @ SAGEORCHARD LN,,29.594312,-95.225342,,
2581,BEAMER RD @ HUGHES RD,,29.592096,-95.222656,,
2582,BEAMER RD @ SAGEDOWNE LN,,29.590016,-95.220146,,
2583,BEAMER RD @ SAGEGREEN DR,,29.58684,-95.216706,,
2584,BEAMER RD @ SCARSDALE BLVD,,29.585443,-95.215025,,
2586,BEAMER RD @ SOUTH FORK BLVD,,29.578008,-95.205282,,
2587,SAN JACINTO COLLEGE SOUTH,,29.577865,-95.20389,,
2588,BEAMER RD @ CANYON DR,,29.580413,-95.207882,,
2589,BEAMER RD @ SCARSDALE BLVD,,29.585515,-95.214042,,
2590,BEAMER RD @ OLIVEWOOD DR,,29.588456,-95.217562,,
2591,BEAMER RD @ HUGHES RD,,29.591873,-95.221687,,
2592,75TH ST @ AVENUE K,,29.739436,-95.289406,,
2593,75TH ST @ AVENUE I,,29.73816,-95.289925,,
2594,75TH ST @ SHERMAN ST,,29.73453,-95.291382,,
2595,75TH ST @ HARRISBURG BLVD,,29.732688,-95.29213,,
2596,HARRISBURG BLVD @ 74TH ST,,29.733153,-95.293902,,
2601,HARRISBURG BLVD @ 74TH ST,,29.733123,-95.294285,,
2602,HARRISBURG BLVD @ 75TH ST,,29.732566,-95.292468,,
2603,HARRISBURG BLVD @ PINEVIEW DR,,29.732161,-95.291163,,
2604,HARRISBURG BLVD @ 77TH ST,,29.731296,-95.288248,,
2605,HARRISBURG BLVD @ 78TH ST,,29.730707,-95.286257,,
2606,HARRISBURG BLVD @ 79TH ST,,29.730136,-95.284327,,
2607,HARRISBURG BLVD @ 80TH ST,,29.729209,-95.281244,,
2608,BROADWAY ST @ GLOVER ST,,29.70379,-95.27787,,
2609,BROADWAY ST @ SCANLOCK ST,,29.705002,-95.277884,,
2610,BROADWAY ST @ KELLER ST,,29.7065,-95.27795,,
2611,BROADWAY ST @ GALVESTON RD,,29.709358,-95.277977,,
2612,BROADWAY ST @ BRUTUS ST,,29.711238,-95.278017,,
2613,HARRISBURG BLVD @ 80TH ST,,29.729611,-95.282069,,
2614,HARRISBURG BLVD @ 79TH ST,,29.730197,-95.284052,,
2615,HARRISBURG BLVD @ 78TH ST,,29.730789,-95.286043,,
2616,HARRISBURG BLVD @ 77TH ST,,29.731372,-95.288004,,
2617,HARRISBURG BLVD @ 76TH ST,,29.732082,-95.290382,,
2627,CAPITOL ST @ 71ST ST,,29.733762,-95.300332,,
2628,CAPITOL ST @ 71ST ST,,29.733703,-95.300612,,
2640,78TH ST @ HARRISBURG BLVD,,29.73117,-95.28594,,
2641,78TH ST @ SHERMAN ST,,29.73249,-95.28542,,
2642,78TH ST @ AVENUE I,,29.7361,-95.28397,,
2643,78TH ST @ AVENUE I,,29.73625,-95.28398,,
2644,78TH ST @ CANAL ST,,29.734876,-95.284572,,
2645,78TH ST @ SHERMAN ST,,29.73267,-95.28542,,
2646,78TH ST @ HARRISBURG BLVD,,29.73088,-95.28615,,
2647,76TH ST @ AVENUE K,,29.73885,-95.28741,,
2648,76TH ST @ AVENUE I,,29.73746,-95.28797,,
2649,CANAL ST @ 75TH ST,,29.73659,-95.29034,,
2650,CANAL ST @ 75TH ST,,29.73688,-95.29139,,
2651,CANAL ST @ 74TH ST,,29.73717,-95.2923,,
2652,CANAL ST @ HEDRICK ST,,29.738215,-95.295494,,
2653,CANAL ST @ 71ST ST,,29.73901,-95.2981,,
2654,CANAL ST @ 70TH ST,,29.73979,-95.30051,,
2655,CANAL ST @ SSGT MACARIO GARCIA DR,,29.74042,-95.30246,,
2656,CANAL ST @ 70TH ST,,29.73977,-95.30077,,
2657,CANAL ST @ 71ST ST,,29.73904,-95.29848,,
2658,CANAL ST @ 75TH ST,,29.73654,-95.29063,,
2659,76TH ST @ CANAL ST,,29.736298,-95.288288,,
2660,76TH ST @ AVENUE I,,29.73728,-95.2879,,
2661,76TH ST @ AVENUE K,,29.73863,-95.28737,,
2662,76TH ST @ NAVIGATION BLVD,,29.73973,-95.28692,,
2663,LAWNDALE ST @ WAYSIDE DR,,29.72448,-95.31069,,
2664,LAWNDALE ST @ IDYLWOOD DR,,29.72378,-95.3084,,
2665,LAWNDALE ST @ MAC GREGOR WAY,,29.72293,-95.30645,,
2666,LAWNDALE ST @ ESPERANZA,,29.72145,-95.30363,,
2667,LAWNDALE ST @ FOREST HILL BLVD,,29.72042,-95.30233,,
2668,LAWNDALE ST @ PALO ALTO ST,,29.7191,-95.30066,,
2669,LAWNDALE ST @ RAINBOW DR,,29.717672,-95.298813,,
2670,LAWNDALE ST @ REDWOOD ST,,29.71725,-95.29644,,
2671,LAWNDALE ST @ 75TH ST,,29.717243,-95.295144,,
2672,LAWNDALE ST @ GRIGGS RD,,29.71683,-95.29112,,
2673,EVERGREEN DR @ BOWIE ST,,29.71581,-95.29033,,
2674,EVERGREEN DR @ VANDEMAN ST,,29.71435,-95.2903,,
2675,EVERGREEN DR @ GARDEN,,29.71222,-95.29024,,
2676,EVERGREEN DR @ ILEX ST,,29.71105,-95.29021,,
2677,EVERGREEN DR @ KERNEL ST,,29.70948,-95.29018,,
2678,EVERGREEN DR @ MOSS ROSE ST,,29.707961,-95.290146,,
2679,EVERGREEN DR @ PALMETTO ST,,29.705722,-95.289955,,
2680,WOODRIDGE DR @ OFFICE CITY DR,,29.703098,-95.294548,,
2681,OFFICE CITY DR @ WOODRIDGE DR,,29.702813,-95.293999,,
2682,OFFICE CITY DR @ EVERGREEN DR,,29.70076,-95.29147,,
2683,OFFICE CITY DR @ EVERGREEN DR,,29.700169,-95.288409,,
2684,OFFICE CITY DR @ GULF CREEK DR,,29.70028,-95.28735,,
2685,GULF FREEWAY   @ EVERGREEN DR,,29.69998,-95.29153,,
2686,EVERGREEN DR @ PALMETTO ST,,29.70553,-95.28981,,
2687,EVERGREEN DR @ MOSS ROSE ST,,29.707804,-95.290032,,
2688,EVERGREEN DR @ KERNEL ST,,29.70966,-95.29007,,
2689,EVERGREEN DR @ ILEX ST,,29.71062,-95.2901,,
2690,EVERGREEN DR @ EDEN,,29.71359,-95.29014,,
2691,EVERGREEN DR @ BOWIE ST,,29.71529,-95.29014,,
2692,LAWNDALE ST @ GRIGGS RD,,29.71703,-95.29102,,
2693,LAWNDALE ST @ 76TH ST,,29.71743,-95.29291,,
2694,LAWNDALE ST @ 75TH ST,,29.717424,-95.294401,,
2695,LAWNDALE ST @ LAWNDALE PLZ,,29.7174,-95.29657,,
2696,LAWNDALE ST @ SANTA ROSA ST,,29.718136,-95.299194,,
2697,LAWNDALE ST @ PALO ALTO ST,,29.71924,-95.30058,,
2698,LAWNDALE ST @ FOREST HILL BLVD,,29.72057,-95.30225,,
2699,LAWNDALE ST @ ESPERANZA,,29.72142,-95.30332,,
2700,LAWNDALE ST @ MAC GREGOR WAY,,29.72305,-95.30638,,
2701,LAWNDALE ST @ IDYLWOOD DR,,29.7239,-95.30834,,
2702,LAWNDALE ST @ WAYSIDE DR,,29.72469,-95.3108,,
2703,LOCKWOOD DR @ NAVIGATION BLVD,LOCKWOOD DR & SUBURBAN ST,29.750619,-95.324486,,
2704,LOCKWOOD DR @ SCHROEDER ST,,29.74913,-95.32561,,
2705,LOCKWOOD DR @ CANAL ST,,29.74807,-95.326652,,
2706,LOCKWOOD DR @ SHERMAN ST,,29.74611,-95.32767,,
2707,LOCKWOOD DR @ HARRISBURG BLVD,,29.743693,-95.328651,,
2708,LOCKWOOD DR @ RUSK ST,,29.74174,-95.33007,,
2709,LOCKWOOD DR @ MC KINNEY ST,,29.74035,-95.33073,,
2710,LOCKWOOD DR @ POLK ST,,29.737983,-95.331724,,
2711,ERNESTINE ST @ BELL ST,,29.73667,-95.33321,,
2712,ERNESTINE ST @ PEASE ST,,29.735012,-95.334274,,
2713,ERNESTINE ST @ COYLE ST,,29.73351,-95.334877,,
2714,ERNESTINE ST @ HARBY ST,,29.731671,-95.335663,,
2718,GULF FREEWAY   @ SAMPSON ST,,29.737195,-95.349136,,
2719,GULF FREEWAY   @ ROBERTS ST,,29.738079,-95.350479,,
2720,GULF FREEWAY   @ NETTLETON ST,,29.73915,-95.35218,,
2721,GULF FREEWAY   @ DELANO,,29.740788,-95.354675,,
2722,GULF FREEWAY   @ NAGLE,,29.741954,-95.355781,,
2726,LEELAND ST @ HUTCHINS ST,,29.746255,-95.358322,,
2727,LEELAND ST @ DOWLING ST,,29.745304,-95.356735,,
2752,LEELAND ST @ HUTCHINS ST,,29.746267,-95.358032,,
2753,LEELAND ST @ CHARTRES ST,,29.747283,-95.359711,,
2756,POLK ST @ LIVE OAK ST,,29.74646,-95.35313,,
2757,POLK ST @ DELANO,,29.74545,-95.35145,,
2758,POLK ST @ ENNIS ST,,29.74441,-95.34972,,
2759,POLK ST @ VELASCO ST,,29.74337,-95.34799,,
2760,POLK ST @ SAMPSON ST,,29.74224,-95.34618,,
2761,POLK ST @ EDMUNDSON,,29.74153,-95.34431,,
2762,POLK ST @ MILBY ST,,29.74111,-95.34293,,
2763,POLK ST @ ST JOSEPH,,29.74045,-95.34076,,
2764,POLK ST @ CULLEN BLVD,,29.73996,-95.339157,,
2765,POLK ST @ SIDNEY ST,,29.73926,-95.33694,,
2766,POLK ST @ EASTWOOD,,29.73872,-95.33507,,
2767,POLK ST @ FASHION ST,,29.73811,-95.33314,,
2768,POLK ST @ LOCKWOOD DR,,29.737734,-95.331902,,
2769,POLK ST @ TELEPHONE RD,,29.73809,-95.33249,,
2770,POLK ST @ EASTWOOD,,29.73872,-95.33474,,
2771,POLK ST @ SIDNEY ST,,29.73928,-95.33654,,
2772,POLK ST @ CULLEN BLVD,,29.74019,-95.339514,,
2773,POLK ST @ ST JOSEPH,,29.74058,-95.34083,,
2774,POLK ST @ MILBY ST,,29.74122,-95.34293,,
2775,POLK ST @ EDMUNDSON,,29.7416,-95.34418,,
2776,POLK ST @ SAMPSON ST,,29.7423,-95.34596,,
2777,POLK ST @ PALMER ST,,29.74357,-95.34814,,
2778,POLK ST @ ENNIS ST,,29.74431,-95.34937,,
2779,POLK ST @ DELANO,,29.74541,-95.35116,,
2780,POLK ST @ LIVE OAK ST,,29.74644,-95.35286,,
2781,POLK ST @ DOWLING ST,,29.74745,-95.35456,,
2786,MC KINNEY ST @ LIVE OAK ST,,29.74868,-95.351379,,
2787,MC KINNEY ST @ NAGLE,,29.74796,-95.35016,,
2788,MC KINNEY ST @ ENNIS ST,,29.746616,-95.347938,,
2789,MC KINNEY ST @ SAMPSON ST,,29.74454,-95.34449,,
2790,MC KINNEY ST @ YORK ST,,29.74372,-95.3429,,
2791,MC KINNEY ST @ MILBY ST,,29.74337,-95.34106,,
2792,MC KINNEY ST @ ST AUGUSTINE ST,,29.74271,-95.33892,,
2793,MC KINNEY ST @ OAKHURST ST,,29.74207,-95.33694,,
2794,MC KINNEY ST @ TELEPHONE RD,,29.74155,-95.33526,,
2795,MC KINNEY ST @ FASHION ST,,29.74075,-95.33268,,
2796,MC KINNEY ST @ LOCKWOOD DR,,29.74015,-95.33088,,
2797,MC KINNEY ST @ FASHION ST,,29.74076,-95.33244,,
2798,MC KINNEY ST @ EASTWOOD ST,,29.7414,-95.33448,,
2799,MC KINNEY ST @ OAKHURST ST,,29.742064,-95.336609,,
2800,MC KINNEY ST @ ST AUGUSTINE ST,,29.74271,-95.33868,,
2801,MC KINNEY ST @ MILBY ST,,29.74335,-95.34074,,
2802,MC KINNEY ST @ YORK ST,,29.74377,-95.34238,,
2803,MC KINNEY ST @ SAMPSON ST,,29.74452,-95.34419,,
2804,MC KINNEY ST @ ENNIS ST,,29.74661,-95.34765,,
2805,MC KINNEY ST @ NAGLE,,29.74815,-95.35019,,
2806,MC KINNEY ST @ LIVE OAK ST,,29.74867,-95.35105,,
2812,TEXAS AVE @ ST EMANUEL ST,,29.754299,-95.353234,,
2813,TEXAS AVE @ DOWLING ST,,29.752835,-95.350629,,
2814,HARRISBURG BLVD @ MIDDLETON ST,,29.751012,-95.34527,,
2815,HARRISBURG BLVD @ VELASCO ST,,29.74917,-95.34293,,
2816,HARRISBURG BLVD @ YORK ST,,29.747791,-95.340743,,
2817,HARRISBURG BLVD @ EVERTON ST,,29.7469,-95.339262,,
2818,HARRISBURG BLVD @ DRENNAN,,29.74576,-95.33669,,
2820,HARRISBURG BLVD @ EASTWOOD ST,,29.74415,-95.332648,,
2821,HARRISBURG BLVD @ BOB ST,,29.74384,-95.330798,,
2822,HARRISBURG BLVD @ LOCKWOOD DR,,29.743384,-95.32898,,
2823,HARRISBURG BLVD @ BOB ST,,29.743903,-95.3305,,
2824,HARRISBURG BLVD @ EASTWOOD ST,,29.74425,-95.332142,,
2825,HARRISBURG BLVD @ SIDNEY ST,,29.744542,-95.333092,,
2826,HARRISBURG BLVD @ EVERTON ST,,29.746883,-95.338874,,
2827,HARRISBURG BLVD @ SAMPSON ST,,29.748332,-95.341192,,
2828,HARRISBURG BLVD @ VELASCO ST,,29.749344,-95.342889,,
2829,HARRISBURG BLVD @ MIDDLETON ST,,29.750696,-95.344584,,
2830,HARRISBURG BLVD @ DELANO,,29.75216,-95.34577,,
2831,PRAIRIE ST @ DOWLING ST,,29.7535,-95.34975,,
2832,DOWLING ST @ TEXAS AVE,,29.753126,-95.350332,,
2833,DOWLING ST @ CAPITOL ST,,29.752076,-95.351155,,
2835,NAVIGATION BLVD @ CANAL ST,,29.758315,-95.347443,,
2836,CANAL ST @ NAVIGATION BLVD,,29.758231,-95.347168,,
2837,CANAL ST @ ST CHARLES ST,,29.756896,-95.345032,,
2838,CANAL ST @ DELANO,,29.755686,-95.343041,,
2839,CANAL ST @ PAIGE,,29.755156,-95.34217,,
2840,CANAL ST @ PALMER ST,,29.754142,-95.340507,,
2841,CANAL ST @ SAMPSON ST,,29.752687,-95.338089,,
2842,CANAL ST @ HUTCHESON ST,,29.751649,-95.336365,,
2843,CANAL ST @ MILBY ST,,29.751048,-95.335404,,
2844,CANAL ST @ HUNT ST,,29.749815,-95.33297,,
2845,CANAL ST @ SIDNEY ST,,29.749334,-95.331413,,
2846,CANAL ST @ EASTWOOD ST,,29.748881,-95.329918,,
2847,CANAL ST @ SUPER,,29.748551,-95.328842,,
2848,CANAL ST @ LOCKWOOD DR,,29.747967,-95.326981,,
2849,CANAL ST @ SUPER,,29.74862,-95.328728,,
2850,CANAL ST @ JENKINS ST,,29.749142,-95.330421,,
2851,CANAL ST @ DRENNAN,,29.749909,-95.332893,,
2852,CANAL ST @ MILBY ST,,29.750571,-95.334602,,
2853,CANAL ST @ HUTCHESON ST,,29.751661,-95.336098,,
2854,CANAL ST @ SAMPSON ST,,29.752661,-95.337761,,
2855,CANAL ST @ PALMER ST,,29.754174,-95.340263,,
2856,CANAL ST @ PAIGE,,29.755168,-95.341896,,
2857,CANAL ST @ DELANO,,29.755706,-95.342758,,
2858,CANAL ST @ ST CHARLES ST,,29.757006,-95.34494,,
2859,CANAL ST @ NAVIGATION BLVD,,29.758148,-95.346664,,
2860,NAVIGATION BLVD @ CANAL ST,,29.758434,-95.347847,,
2861,FRANKLIN ST @ CHARTRES ST,,29.75782,-95.351364,,
2862,WAYSIDE DR @ RAND ST,,29.80559,-95.28443,,
2863,WAYSIDE DR @ GATES ST,,29.80691,-95.28439,,
2864,WAYSIDE DR @ FIELDS,,29.80864,-95.28438,,
2865,BOOKER ST @ GRANDVILLE DR,,29.80944,-95.28276,,
2866,EASTLAND ST @ TATE,,29.80985,-95.2809,,
2867,EASTLAND ST @ BONAIRE,,29.81098,-95.2809,,
2868,EASTLAND ST @ CINDERELLA,,29.81242,-95.28091,,
2869,EASTLAND ST @ FOWLIE,,29.81389,-95.28088,,
2870,EASTLAND ST @ KENTON ST,,29.81529,-95.28088,,
2871,EASTLAND ST @ MILEY ST,,29.81673,-95.28086,,
2872,EASTLAND ST @ FILLTOP,,29.81816,-95.28084,,
2873,EASTLAND ST @ ST LOUIS,,29.81961,-95.28084,,
2874,EASTLAND ST @ ETHEL,,29.82101,-95.28085,,
2875,SUNBURY ST @ EASTLAND ST,,29.821892,-95.281265,,
2876,SUNBURY ST @ LETCHER,,29.82188,-95.28285,,
2877,SUNBURY ST @ WAYSIDE DR,,29.82188,-95.28396,,
2878,SUNBURY ST @ WAYSIDE DR,,29.82177,-95.28395,,
2879,SUNBURY ST @ FLETA DR,,29.8218,-95.28282,,
2880,SUNBURY ST @ EASTLAND ST,,29.821809,-95.281021,,
2881,EASTLAND ST @ ETHEL,,29.82118,-95.28094,,
2882,EASTLAND ST @ BLUE,,29.81933,-95.28094,,
2883,EASTLAND ST @ FILLTOP,,29.8183,-95.28097,,
2884,EASTLAND ST @ MILEY ST,,29.817182,-95.280976,,
2885,EASTLAND ST @ KENTON ST,,29.81548,-95.28098,,
2886,EASTLAND ST @ FOWLIE,,29.81402,-95.28097,,
2887,EASTLAND ST @ CINDERELLA,,29.81259,-95.28098,,
2888,EASTLAND ST @ BONAIRE,,29.81114,-95.281,,
2889,EASTLAND ST @ TATE,,29.81002,-95.28101,,
2890,BOOKER ST @ GRANDVILLE DR,,29.80952,-95.28266,,
2891,BOOKER ST @ WAYSIDE DR,,29.80951,-95.28434,,
2892,WAYSIDE DR @ HENSON ST,,29.82327,-95.28429,,
2893,WAYSIDE DR @ BIRMINGHAM,,29.824638,-95.284324,,
2894,WAYSIDE DR @ RITZ,,29.8263,-95.2843,,
2895,WAYSIDE DR @ DOCKAL RD,,29.82856,-95.28428,,
2896,WAYSIDE DR @ LEY RD,,29.830638,-95.284243,,
2897,WAYSIDE DR @ GREEN RIVER DR,,29.832927,-95.284219,,
2898,WAYSIDE DR @ DARLINGTON DR,,29.834464,-95.284221,,
2899,WAYSIDE DR @ CAROLWOOD DR,,29.836055,-95.284303,,
2900,WAYSIDE DR @ RICHLAND DR,,29.837805,-95.284355,,
2901,WAYSIDE DR @ OAK KNOLL LN,,29.839529,-95.284376,,
2902,WAYSIDE DR @ WOODLYN RD,,29.841291,-95.284397,,
2903,WAYSIDE DR @ TALTON,,29.84307,-95.28443,,
2904,WAYSIDE DR @ LYNETTE,,29.844749,-95.284435,,
2905,WAYSIDE DR @ RECORD,,29.84663,-95.28451,,
2906,WAYSIDE DR @ TIDWELL RD,,29.84845,-95.28474,,
2907,TIDWELL RD @ MADDOX ST,,29.849723,-95.279495,,
2908,TIDWELL RD @ MOSSWOOD DR,,29.849744,-95.276985,,
2909,TIDWELL RD @ WILOAK,,29.849799,-95.274406,,
2910,TIDWELL RD @ HADDICK,,29.849834,-95.271927,,
2911,TIDWELL RD @ HILLIS,,29.84988,-95.268722,,
2912,TIDWELL RD @ MAYBERRY,,29.849898,-95.26651,,
2913,MESA DR @ RINN RD,,29.851,-95.26218,,
2915,MESA DR @ STERLINGSHIRE BLVD,,29.854825,-95.262273,,
2916,MESA DR @ CADDO RD,,29.856873,-95.26231,,
2918,MESA DR @ EVERGLADE DR,,29.860388,-95.262416,,
2919,MESA DR @ COCKBURN ST,,29.86181,-95.26238,,
2920,MESA DR @ LAKEWOOD ST,,29.86298,-95.262409,,
2921,MESA DR @ FOREST HOLLOW DR,,29.86463,-95.26243,,
2922,FOREST HOLLOW DR @ MESA DR,,29.864523,-95.261607,,
2923,FOREST HOLLOW DR @ MESA DR,,29.864711,-95.261839,,
2925,MESA DR @ FRINGEWOOD DR,,29.84619,-95.26237,,
2926,MESA DR @ TALTON,,29.843732,-95.262352,,
2927,MESA DR @ LAURA KOPPE RD,,29.8407,-95.26234,,
2928,MESA DR @ LINDA VISTA RD,,29.838786,-95.262291,,
2929,MESA DR @ CRESTVIEW DR,,29.83719,-95.26231,,
2939,LEY RD @ WAYSIDE DR,,29.831407,-95.283973,,
2940,LEY RD @ TREMONT ST,,29.831288,-95.280464,,
2941,LEY RD @ DENTON,,29.831299,-95.277008,,
2942,LEY RD @ DENTON,,29.831319,-95.273559,,
2943,LEY RD @ HOUSTON RD,,29.831346,-95.270172,,
2944,LEY RD @ HOUSTON RD,,29.831017,-95.268043,,
2945,LEY RD @ FITZHUGH,,29.830676,-95.265289,,
2946,LEY RD @ MESA DR,,29.830697,-95.262764,,
2947,MESA DR @ LEYCREST RD,,29.8321,-95.26183,,
2948,MESA DR @ PALO BLANCO RD,,29.83403,-95.26186,,
2949,MESA DR @ HOUSTON RD,,29.83651,-95.2621,,
2950,MESA DR @ LINDA VISTA RD,,29.838683,-95.262146,,
2951,MESA DR @ LAURA KOPPE RD,,29.84036,-95.26216,,
2952,MESA DR @ CHATWOOD DR,,29.843,-95.26217,,
2954,MESA DR @ PARKETTE DR,,29.848629,-95.262253,,
2955,HOUSTON RD @ FELAND,,29.836631,-95.267075,,
2956,HOUSTON RD @ FLINTRIDGE DR,,29.835499,-95.270211,,
2957,HOUSTON RD @ GREEN RIVER DR,,29.833619,-95.270164,,
2958,HOUSTON RD @ LEY RD,,29.83191,-95.270156,,
2959,HOUSTON RD @ FURRAY RD,,29.82998,-95.270111,,
2960,HOUSTON RD @ DOCKAL RD,,29.82803,-95.27008,,
2961,HOUSTON RD @ DOCKAL RD,,29.8267,-95.27004,,
2962,HOUSTON RD @ EASTOVER,,29.82407,-95.27,,
2963,HOUSTON RD @ HOWTON,,29.81873,-95.26992,,
2964,ATTWATER   @ HOUSTON RD,,29.81604,-95.26923,,
2965,ATTWATER   @ MESA DR,,29.816071,-95.262672,,
2966,MESA DR @ ATTWATER,,29.81376,-95.26254,,
2967,MC CARTY ST @ MESA DR,,29.81,-95.25999,,
2968,OATES RD @ BEAUMONT HWY,,29.81917,-95.24052,,
2969,BEAUMONT HWY @ BLUEBONNET LANDFILL,BEAUMONT HWY & BLUEBONNET LANDFILL RD,29.813824,-95.254342,,
2970,MC CARTY ST @ MESA DR,,29.80992,-95.26044,,
2971,MESA DR @ MC CARTY ST,,29.81361,-95.2622,,
2972,ATTWATER   @ MESA DR,,29.81621,-95.263016,,
2973,ATTWATER   @ HOUSTON RD,,29.81616,-95.2695,,
2974,HOUSTON RD @ HOWTON,,29.81854,-95.2698,,
2975,HOUSTON RD @ SUNBURY ST,,29.822194,-95.269837,,
2976,HOUSTON RD @ EASTOVER,,29.82388,-95.26988,,
2977,HOUSTON RD @ PENROD ST,,29.82656,-95.26994,,
2978,HOUSTON RD @ DOCKAL RD,,29.82821,-95.26997,,
2979,HOUSTON RD @ FURRAY RD,,29.829792,-95.269989,,
2980,HOUSTON RD @ LEY RD,,29.831137,-95.269981,,
2981,HOUSTON RD @ GREEN RIVER DR,,29.833434,-95.270065,,
2982,HOUSTON RD @ FLINTRIDGE DR,,29.835317,-95.270096,,
2983,HOUSTON RD @ FELAND,,29.836536,-95.267235,,
2985,UVALDE RD @ EAST FREEWAY,,29.771798,-95.186386,,
2986,UVALDE RD @ DULUTH ST,,29.77365,-95.18644,,
2987,UVALDE RD @ VICKSBURG,,29.77567,-95.18648,,
2988,UVALDE RD @ MOBILE ST,,29.77856,-95.18656,,
2989,UVALDE RD @ ORLEANS ST,,29.7816,-95.18665,,
2990,UVALDE RD @ JOLIET,,29.78346,-95.18669,,
2991,UVALDE RD @ LOUISVILLE ST,,29.78562,-95.18676,,
2992,UVALDE RD @ FORCE ST,,29.787,-95.1868,,
2993,UVALDE RD @ HOLLY PARK DR,,29.78866,-95.18684,,
2994,WOODFOREST BLVD @ WHITE CEDAR DR,,29.791723,-95.18615,,
2996,WHITE CEDAR DR @ HOLLY PARK DR,,29.78936,-95.18572,,
2997,UVALDE RD @ GRANADA ST,,29.78837,-95.18709,,
2998,UVALDE RD @ FORCE ST,,29.7872,-95.18705,,
2999,UVALDE RD @ LOUISVILLE ST,,29.78545,-95.18701,,
3000,UVALDE RD @ JOLIET,,29.7837,-95.18697,,
3001,UVALDE RD @ ORLEANS ST,,29.78182,-95.18691,,
3002,UVALDE RD @ EMPORIA ST,,29.77995,-95.18687,,
3003,UVALDE RD @ MOBILE ST,,29.77836,-95.18682,,
3004,UVALDE RD @ VICKSBURG,,29.77588,-95.18676,,
3005,UVALDE RD @ DULUTH ST,,29.77404,-95.18671,,
3006,UVALDE RD @ EAST FREEWAY,,29.771518,-95.186691,,
3008,EAST FREEWAY   @ ROCKGLEN ST,,29.77142,-95.19232,,
3009,EAST FREEWAY   @ ROCKGLEN ST,,29.771546,-95.193969,,
3010,EAST FREEWAY   @ DWIGHT,,29.77193,-95.20213,,
3011,EAST FREEWAY   @ NORMANDY ST,,29.771771,-95.205917,,
3012,EAST FREEWAY   @ HALSEY,,29.77142,-95.21002,,
3013,EAST FREEWAY   @ KEYPORT LN,,29.77092,-95.21513,,
3014,EAST FREEWAY   @ MAXEY RD,,29.770754,-95.218109,,
3015,EAST FREEWAY   @ MAE DR,,29.77095,-95.22134,,
3016,EAST FREEWAY   @ CENTERWOOD DR,,29.771993,-95.226015,,
3017,EAST FREEWAY   @ CENTERWOOD DR,,29.77298,-95.23022,,
3019,EAST FREEWAY   @ JOHN RALSTON RD,,29.773765,-95.233739,,
3020,EAST FREEWAY   @ BACA ST,,29.77414,-95.23809,,
3021,MERCURY DR @ IH 10 SERVICE RD,EAST FREEWAY & MERCURY DR,29.774138,-95.246483,,
3022,JENSEN DR @ GRAYSON ST,,29.767068,-95.343117,,
3023,JENSEN DR @ CLINE ST,,29.76607,-95.343071,,
3024,JENSEN DR @ BRYAN ST,,29.764067,-95.343071,,
3025,JENSEN DR @ FOOTE,,29.763093,-95.343056,,
3026,JENSEN DR @ ANN ST,,29.760264,-95.344701,,
3027,JENSEN DR @ NAVIGATION BLVD,JENSEN DR & ANN ST,29.759688,-95.34491,,
3028,JENSEN DR @ KENNEDY ST,,29.761015,-95.343849,,
3029,JENSEN DR @ SHILOH ST,,29.76395,-95.342911,,
3030,JENSEN DR @ ROANOKE,,29.76553,-95.342911,,
3031,JENSEN DR @ GRAYSON ST,,29.766873,-95.342934,,
3032,NANCE ST @ CLARK ST,,29.76791,-95.34186,,
3033,NANCE ST @ MEADOW ST,,29.768347,-95.339718,,
3034,NANCE ST @ SYDNOR,,29.768632,-95.33802,,
3035,NANCE ST @ GROVE,,29.768654,-95.336676,,
3036,WACO ST @ SONDICK CT,,29.77145,-95.32656,,
3037,HIRSCH RD @ GILLESPIE ST,,29.76769,-95.32729,,
3038,HIRSCH RD @ CLINTON DR,,29.76565,-95.32762,,
3039,YORK ST @ BALL ST,,29.75679,-95.3315,,
3040,YORK ST @ FOX,,29.75591,-95.33273,,
3041,YORK ST @ FOX,,29.75567,-95.33281,,
3042,YORK ST @ BALL ST,,29.75696,-95.33108,,
3043,HIRSCH RD @ CLINTON DR,,29.76524,-95.32737,,
3044,HIRSCH RD @ GILLESPIE ST,,29.76741,-95.32714,,
3045,WACO ST @ SHARON,,29.77153,-95.32629,,
3046,LOCKWOOD DR @ ARAPAHOE ST,,29.77113,-95.31555,,
3047,LOCKWOOD DR @ SONORA ST,,29.76992,-95.31554,,
3048,LOCKWOOD DR @ SONORA ST,,29.76829,-95.31554,,
3049,LOCKWOOD DR @ SONORA ST,,29.76612,-95.31556,,
3050,LOCKWOOD DR @ CLINTON DR,,29.763085,-95.315925,,
3051,LOCKWOOD DR @ CLINTON DR,,29.7614,-95.31686,,
3052,LOCKWOOD DR @ HARVEY WILSON DR,,29.75916,-95.31818,,
3053,LOCKWOOD DR @ CRITES,,29.75265,-95.32294,,
3054,LOCKWOOD DR @ CRITES,,29.75275,-95.32256,,
3055,LOCKWOOD DR @ HARVEY WILSON DR,,29.75885,-95.31812,,
3056,LOCKWOOD DR @ HARVEY WILSON DR,,29.76148,-95.31661,,
3057,LOCKWOOD DR @ CLINTON DR,,29.764134,-95.315384,,
3058,LOCKWOOD DR @ CLINTON DR,,29.76598,-95.31532,,
3059,LOCKWOOD DR @ SONORA ST,,29.76968,-95.3153,,
3060,LOCKWOOD DR @ SAN JUAN ST,,29.77153,-95.31529,,
3061,LOCKWOOD DR @ STONEWALL ST,,29.77333,-95.31509,,
3062,KRESS ST @ MARKET ST,,29.772997,-95.307503,,
3063,KRESS ST @ ARAPAHOE ST,,29.77109,-95.30747,,
3064,KRESS ST @ LESLIE ST,,29.76928,-95.30748,,
3065,KRESS ST @ LARIMER ST,,29.7675,-95.30749,,
3067,KRESS ST @ OLD CLINTON RD,,29.76285,-95.30744,,
3068,KRESS ST @ CLINTON DR,,29.761595,-95.307759,,
3069,KRESS ST @ OLD CLINTON RD,,29.763907,-95.307321,,
3070,KRESS ST @ LARIMER ST,,29.76725,-95.30734,,
3071,KRESS ST @ LESLIE ST,,29.7691,-95.30734,,
3072,KRESS ST @ ARAPAHOE ST,,29.77091,-95.30733,,
3073,LATHROP ST @ EL PASO,,29.7718,-95.30126,,
3074,LATHROP ST @ LESLIE ST,,29.76926,-95.30124,,
3075,LATHROP ST @ LARIMER ST,,29.76745,-95.30125,,
3076,LATHROP ST @ LARIMER ST,,29.76394,-95.30126,,
3077,LATHROP ST @ OLD CLINTON RD,,29.76123,-95.30127,,
3078,LATHROP ST @ OLD CLINTON RD,,29.76094,-95.30117,,
3079,LATHROP ST @ OLD CLINTON RD,,29.76385,-95.30116,,
3080,LATHROP ST @ LARIMER ST,,29.76721,-95.301139,,
3081,LATHROP ST @ LESLIE ST,,29.76904,-95.30116,,
3082,LATHROP ST @ EL PASO,,29.77136,-95.30112,,
3083,WAYSIDE DR @ AVENUE U,,29.7505,-95.30074,,
3084,WAYSIDE DR @ AVENUE S,,29.74922,-95.30128,,
3085,WAYSIDE DR @ AVENUE Q,,29.74787,-95.30184,,
3086,WAYSIDE DR @ NAVIGATION BLVD,,29.745345,-95.302926,,
3087,MARKET ST @ ZOE ST,,29.772908,-95.303141,,
3088,MARKET ST @ ROUSE ST,,29.772919,-95.305219,,
3089,MARKET ST @ KRESS ST,,29.772915,-95.307189,,
3090,MARKET ST @ HAHLO ST,,29.772914,-95.309372,,
3091,MARKET ST @ SHOTWELL ST,,29.772929,-95.311399,,
3092,MARKET ST @ SAKOWITZ ST,,29.772772,-95.313413,,
3093,MARKET ST @ LOCKWOOD DR,,29.772727,-95.314916,,
3095,MARKET ST @ SAKOWITZ ST,,29.772592,-95.313749,,
3096,MARKET ST @ SHOTWELL ST,,29.7728,-95.311184,,
3097,MARKET ST @ HAHLO ST,,29.772799,-95.309608,,
3098,MARKET ST @ KRESS ST,,29.772789,-95.307685,,
3099,MARKET ST @ ROUSE ST,,29.772793,-95.305531,,
3100,MARKET ST @ ZOE ST,,29.772778,-95.303421,,
3101,MARKET ST @ LATHROP ST,,29.772798,-95.301598,,
3102,MARKET ST @ LATHROP ST,,29.772896,-95.30158,,
3103,MARKET ST @ CALLES ST,,29.77269,-95.31695,,
3104,CALLES ST @ ARAPAHOE ST,,29.771194,-95.317486,,
3105,CALLES ST @ SONORA ST,,29.769927,-95.317518,,
3106,COKE   @ CALLES ST,,29.768003,-95.318893,,
3107,COKE   @ CALLES ST,,29.76799,-95.32079,,
3108,COKE   @ SCHWEIKHARDT ST,,29.768069,-95.323083,,
3109,SCHWEIKHARDT ST @ HARE,,29.76928,-95.3232,,
3110,SCHWEIKHARDT ST @ PROVIDENCE ST,,29.77065,-95.32323,,
3111,PROVIDENCE ST @ AMBOY,,29.77079,-95.32449,,
3112,PROVIDENCE ST @ WACO ST,,29.770877,-95.326256,,
3113,PROVIDENCE ST @ WACO ST,,29.77079,-95.32603,,
3114,PROVIDENCE ST @ AMBOY,,29.77073,-95.32466,,
3115,PROVIDENCE ST @ SCHWEIKHARDT ST,,29.77075,-95.32337,,
3116,SCHWEIKHARDT ST @ HARE,,29.7695,-95.32331,,
3117,SCHWEIKHARDT ST @ GUNTER,,29.76837,-95.3233,,
3125,BROADWAY ST @ LA PORTE RD,,29.714498,-95.278102,,
3126,BROADWAY ST @ CHANNELSIDE,,29.71676,-95.27816,,
3127,BROADWAY ST @ MANCHESTER ST,,29.718778,-95.278261,,
3128,MANCHESTER ST @ BROADWAY ST,,29.718083,-95.277832,,
3129,MANCHESTER ST @ SAN SABA ST,,29.718158,-95.274191,,
3131,MANCHESTER ST @ SAN SABA ST,,29.718256,-95.269197,,
3132,MANCHESTER ST @ LOOP,,29.718287,-95.267128,,
3133,MANCHESTER ST @ LOOP,,29.718305,-95.264946,,
3134,MANCHESTER ST @ 93RD ST,,29.718405,-95.262321,,
3135,MANCHESTER ST @ CENTRAL ST,,29.718457,-95.260231,,
3136,MANCHESTER ST @ 95TH ST,,29.718509,-95.258133,,
3137,MANCHESTER ST @ 96TH ST,,29.71856,-95.25605,,
3138,MANCHESTER ST @ PORT ENTERANCE,,29.717463,-95.251726,,
3139,MANCHESTER ST @ 96TH ST,,29.718673,-95.255859,,
3140,MANCHESTER ST @ 95TH ST,,29.718626,-95.257911,,
3141,MANCHESTER ST @ CENTRAL ST,,29.718581,-95.259983,,
3142,MANCHESTER ST @ 93RD ST,,29.71853,-95.262099,,
3143,MANCHESTER ST @ 92ND ST,,29.718476,-95.264153,,
3144,MANCHESTER ST @ CONCRETE ST,,29.718384,-95.269246,,
3146,MANCHESTER ST @ SAN SABA ST,,29.718264,-95.274415,,
3147,MANCHESTER ST @ FRIO,,29.718184,-95.277282,,
3148,BROADWAY ST @ CYPRESS ST,,29.723199,-95.278361,,
3149,BROADWAY ST @ SYCAMORE ST,,29.724898,-95.278406,,
3150,BROADWAY ST @ HOCKLEY ST,,29.726066,-95.278445,,
3151,NAVIGATION BLVD @ 77TH ST,,29.73944,-95.28473,,
3152,NAVIGATION BLVD @ 74TH ST,,29.741342,-95.290657,,
3153,NAVIGATION BLVD @ HEDRICK ST,,29.742318,-95.293808,,
3154,NAVIGATION BLVD @ 71ST ST,,29.743153,-95.296531,,
3155,NAVIGATION BLVD @ 70TH ST,,29.743833,-95.298752,,
3156,NAVIGATION BLVD @ SSGT MACARIO GARC,NAVIGATION BLVD & SSGT MACARIO GARCIA DR,29.744489,-95.300781,,
3157,SSGT MACARIO GARCIA DR @ AVENUE N,,29.74547,-95.30042,,
3158,SSGT MACARIO GARCIA DR @ AVENUE Q,,29.74704,-95.29977,,
3159,SSGT MACARIO GARCIA DR @ AVENUE S,,29.74837,-95.29922,,
3160,SSGT MACARIO GARCIA DR @ AVENUE U,,29.74966,-95.29868,,
3161,MERCURY DR @ IH 10 SERVICE RD,EAST FREEWAY & MERCURY DR,29.773247,-95.24764,,
3162,EAST FREEWAY   @ FLINT ST,,29.77332,-95.24423,,
3163,EAST FREEWAY   @ LUTHER,,29.7734,-95.24243,,
3164,EAST FREEWAY   @ AKRON ST,,29.77342,-95.24058,,
3165,EAST FREEWAY   @ BACA ST,,29.77344,-95.23778,,
3166,EAST FREEWAY   @ HOLLAND AVE,,29.772626,-95.232737,,
3167,EAST FREEWAY   @ MAE DR,,29.771693,-95.228387,,
3168,EAST FREEWAY   @ MAE DR,,29.770715,-95.223903,,
3169,EAST FREEWAY   @ MAE DR,,29.770027,-95.220636,,
3170,EAST FREEWAY   @ FALCON,,29.77001,-95.21578,,
3171,EAST FREEWAY   @ FEDERAL RD,,29.77016,-95.21396,,
3172,EAST FREEWAY @ HALSEY,,29.77053,-95.210266,,
3173,EAST FREEWAY   @ NORMANDY ST,,29.77084,-95.20671,,
3174,EAST FREEWAY   @ DWIGHT,,29.771027,-95.20251,,
3175,EAST FREEWAY   @ MARKET ST,,29.77037,-95.18892,,
3176,NAVIGATION BLVD @ SSGT MACARIO GARC,NAVIGATION BLVD & SSGT MACARIO GARCIA DR,29.744408,-95.301056,,
3177,NAVIGATION BLVD @ MALTBY ST,,29.743823,-95.299194,,
3178,NAVIGATION BLVD @ 71ST ST,,29.742957,-95.296417,,
3179,NAVIGATION BLVD @ HEDRICK ST,,29.742355,-95.294464,,
3180,NAVIGATION BLVD @ 74TH ST,,29.741273,-95.290963,,
3181,NAVIGATION BLVD @ 75TH ST,,29.740678,-95.289025,,
3182,NAVIGATION BLVD @ 76TH ST,,29.73988,-95.28641,,
3183,NAVIGATION BLVD @ 77TH ST,,29.73941,-95.28502,,
3184,BROADWAY ST @ SYCAMORE ST,,29.725134,-95.278688,,
3185,BROADWAY ST @ CYPRESS ST,,29.722937,-95.278628,,
3186,BROADWAY ST @ MANCHESTER ST,,29.71777,-95.27848,,
3187,BROADWAY ST @ LAWNDALE ST,,29.716,-95.27844,,
3188,BROADWAY ST @ LA PORTE FREEWAY,,29.714324,-95.278392,,
3189,BROADWAY ST @ BRUTUS ST,,29.711602,-95.278262,,
3190,BROADWAY ST @ GALVESTON RD,,29.709572,-95.278184,,
3191,BROADWAY ST @ KELLER ST,,29.70672,-95.27811,,
3192,BROADWAY ST @ SCANLOCK ST,,29.70525,-95.27807,,
3193,BROADWAY ST @ GLOVER ST,,29.703791,-95.278071,,
3194,ELGIN ST @ ST EMANUEL ST,,29.735941,-95.367775,,
3195,ELGIN ST @ HUTCHINS ST,,29.735459,-95.366928,,
3196,HUTCHINS ST @ HOLMAN ST,,29.733836,-95.368123,,
3197,HOLMAN ST @ DOWLING ST,,29.732561,-95.366707,,
3198,HOLMAN ST @ LIVE OAK ST,,29.73154,-95.36493,,
3199,HOLMAN ST @ DELANO,,29.730517,-95.36324,,
3200,HOLMAN ST @ ENNIS ST,,29.72952,-95.361586,,
3201,HOLMAN ST @ SAUER ST,,29.72884,-95.36042,,
3202,HOLMAN ST @ BURKETT ST,,29.72763,-95.35818,,
3203,HOLMAN ST @ NETTLETON ST,,29.727003,-95.356987,,
3204,HOLMAN ST @ TIERWESTER ST,,29.726391,-95.355819,,
3205,HOLMAN ST @ SAMPSON ST,,29.725907,-95.354416,,
3206,HOLMAN ST @ CANFIELD ST,,29.725368,-95.352643,,
3207,HOLMAN ST @ SCOTT ST,,29.724797,-95.350783,,
3208,HOLMAN ST @ SCOTT ST,,29.724256,-95.349068,,
3210,CLEBURNE ST @ TIERWESTER ST,,29.722869,-95.357521,,
3211,CLEBURNE ST @ BURKETT ST,,29.723243,-95.359642,,
3212,CLEBURNE ST @ VELASCO,,29.724353,-95.36213,,
3213,CLEBURNE ST @ ENNIS ST,,29.725675,-95.364182,,
3214,CLEBURNE ST @ ENNIS ST,,29.72545,-95.364013,,
3215,CLEBURNE ST @ CUNEY DR,CLEBURNE ST & CUNY DR,29.724341,-95.362304,,
3216,CLEBURNE ST @ BURKETT ST,,29.723212,-95.359932,,
3217,CLEBURNE ST @ TIERWESTER ST,,29.722743,-95.357452,,
3221,DOWLING ST @ FRANCIS,,29.733287,-95.365882,,
3222,DOWLING ST @ ELGIN ST,,29.73418,-95.36514,,
3223,DOWLING ST @ ROSALIE ST,,29.73528,-95.36427,,
3224,DOWLING ST @ TUAM ST,,29.73618,-95.36356,,
3225,DOWLING ST @ MC GOWEN ST,,29.737938,-95.362168,,
3226,DOWLING ST @ MC ILHENNY ST,,29.73901,-95.36131,,
3227,DOWLING ST @ WEBSTER ST,,29.74064,-95.36002,,
3228,DOWLING ST @ PIERCE ST,,29.74194,-95.35897,,
3231,PIERCE ST @ HUTCHINS ST,,29.743272,-95.360725,,
3233,DOWLING ST @ WEBSTER ST,,29.74085,-95.36002,,
3234,DOWLING ST @ MC ILHENNY ST,,29.739206,-95.361343,,
3235,DOWLING ST @ MC GOWEN ST,,29.738306,-95.362068,,
3236,DOWLING ST @ TUAM ST,,29.73644,-95.36353,,
3237,DOWLING ST @ ELGIN ST,,29.73462,-95.36497,,
3238,DOWLING ST @ HOLMAN ST,,29.733308,-95.366048,,
3239,PIERCE ST @ LIVE OAK ST,,29.741231,-95.357292,,
3240,GULF FREEWAY   @ SAUER ST,,29.740084,-95.355499,,
3241,GULF FREEWAY   @ BRILEY ST,,29.739203,-95.354271,,
3242,GULF FREEWAY   @ NETTLETON ST,,29.738444,-95.353073,,
3243,GULF FREEWAY   @ TIERWESTER ST,,29.737754,-95.351967,,
3244,GULF FREEWAY   @ SAMPSON ST,,29.736763,-95.350418,,
3245,GULF FREEWAY   @ SCOTT ST,,29.735658,-95.348648,,
3249,WAYSIDE DR @ GULF FREEWAY,,29.71419,-95.31584,,
3250,WAYSIDE DR @ TELEPHONE RD,,29.713099,-95.3163,,
3251,TELEPHONE RD @ OAKCLIFF ST,,29.713999,-95.317482,,
3252,TELEPHONE RD @ WILSHIRE ST,,29.715326,-95.318947,,
3253,TELEPHONE RD @ CUMBERLAND,,29.717268,-95.320229,,
3254,TELEPHONE RD @ WILSHIRE ST,,29.715462,-95.31926,,
3255,TELEPHONE RD @ OAKCLIFF ST,,29.714296,-95.317985,,
3256,TELEPHONE RD @ WAYSIDE DR,,29.712892,-95.316452,,
3257,ELGIN ST @ E17 U of H,,29.726385,-95.340644,,
3264,ELGIN ST @ E18 U OF H,,29.726181,-95.340965,,
3265,MC GOWEN ST @ SCOTT ST,MC GOWEN ST & NAPOLEON ST,29.732957,-95.349075,,
3266,MC GOWEN ST @ SAMPSON ST,,29.733648,-95.351318,,
3267,MC GOWEN ST @ TIERWESTER ST,,29.734191,-95.353078,,
3268,MC GOWEN ST @ BURKETT ST,,29.734732,-95.354866,,
3269,MC GOWEN ST @ BRAILSFORT,,29.7353,-95.356713,,
3270,MC GOWEN ST @ DELANO,,29.735979,-95.35833,,
3271,MC GOWEN ST @ LIVE OAK ST,,29.736954,-95.359947,,
3272,MC GOWEN ST @ DOWLING ST,,29.738137,-95.361901,,
3273,MC GOWEN ST @ HUTCHINS ST,,29.73916,-95.363609,,
3274,MC GOWEN ST @ HUTCHINS ST,,29.739213,-95.363952,,
3275,MC GOWEN ST @ DOWLING ST,,29.738196,-95.362259,,
3276,MC GOWEN ST @ LIVE OAK ST,,29.73726,-95.360702,,
3277,MC GOWEN ST @ DELANO,,29.736113,-95.358811,,
3278,MC GOWEN ST @ BRAILSFORT,,29.735253,-95.35701,,
3279,MC GOWEN ST @ BURKETT ST,,29.734712,-95.355232,,
3280,MC GOWEN ST @ TIERWESTER ST,,29.73416,-95.353447,,
3281,MC GOWEN ST @ SAMPSON ST,,29.733613,-95.351647,,
3282,MC GOWEN ST @ SCOTT ST,,29.732712,-95.348694,,
3284,HOMESTEAD RD @ LOOP,,29.806327,-95.302024,,
3285,HOMESTEAD RD @ LOOP,,29.80369,-95.30202,,
3286,HOMESTEAD RD @ CAVALCADE ST,,29.80066,-95.30199,,
3287,HOMESTEAD RD @ CAVALCADE ST,,29.79752,-95.30196,,
3288,HOMESTEAD RD @ LIBERTY RD,,29.79423,-95.30195,,
3289,HOMESTEAD RD @ LIBERTY RD,,29.79463,-95.3017,,
3290,HOMESTEAD RD @ LIBERTY RD,,29.7975,-95.30172,,
3291,HOMESTEAD RD @ CAVALCADE ST,,29.80351,-95.30176,,
3292,HOMESTEAD RD @ LOOP,,29.806656,-95.301773,,
3293,LOOP   @ HOMESTEAD RD,,29.807173,-95.302286,,
3294,LOOP   @ EASTPARK DR,,29.805307,-95.298668,,
3295,LOOP   @ DARIEN ST,,29.804499,-95.29699,,
3296,LOOP   @ DARIEN ST,,29.803966,-95.293838,,
3297,LOOP   @ WAYSIDE DR,,29.803866,-95.284836,,
3298,NOBLE ST @ DAN,,29.78048,-95.32498,,
3299,NOBLE ST @ SCHWEIKHARDT ST,,29.78048,-95.32304,,
3300,NOBLE ST @ SOLO,,29.780477,-95.321309,,
3301,SOLO   @ HERSHE,,29.77774,-95.32112,,
3302,SOLO   @ NEW ORLEANS ST,,29.7767,-95.32114,,
3303,SOLO   @ HERSHE,,29.77757,-95.32105,,
3304,SOLO   @ RAWLEY,,29.77886,-95.32107,,
3305,SOLO   @ NOBLE ST,,29.780205,-95.321076,,
3306,NOBLE ST @ SCHWEIKHARDT ST,,29.78055,-95.32278,,
3307,NOBLE ST @ DAN,,29.78054,-95.32471,,
3308,NOBLE ST @ WACO ST,,29.780309,-95.326378,,
3309,ROUSE ST @ LYONS AVE,,29.777123,-95.305245,,
3310,ROUSE ST @ HERSHE,,29.77824,-95.30525,,
3311,ROUSE ST @ HILLSBORO ST,,29.78007,-95.30525,,
3312,ROUSE ST @ EAGLE PASS,,29.783521,-95.305237,,
3313,ROUSE ST @ LONGVIEW,,29.78488,-95.30523,,
3314,ROUSE ST @ FORCE,,29.78626,-95.30524,,
3315,LATHROPE ST @ WALLISVILLE RD,LATHROPE ST & WALLISVILLE & ALDERSON ST,29.787189,-95.305221,,
3316,HAHLO ST @ WALLISVILLE RD,,29.787059,-95.309479,,
3317,HAHLO ST @ DOWNING,,29.785667,-95.309487,,
3318,HAHLO ST @ COLFAX,,29.783843,-95.309486,,
3319,HAHLO ST @ GLENARM ST,,29.782046,-95.309487,,
3320,HAHLO ST @ HILLSBORO ST,,29.780217,-95.309502,,
3321,HAHLO ST @ HERSHE,,29.778403,-95.309486,,
3322,PORT ST @ BROWNWOOD,,29.77794,-95.29632,,
3323,BROWNWOOD   @ HARBOR,,29.77802,-95.29486,,
3324,HARBOR   @ WAXAHACHIE,,29.77934,-95.29475,,
3325,HARBOR   @ LAREDO,,29.78072,-95.2948,,
3326,HARBOR   @ CORPUS CHRISTI,,29.7821,-95.29482,,
3327,HARBOR   @ TEXARKANA ST,,29.78413,-95.29486,,
3328,HARBOR   @ GAINESVILLE,,29.78551,-95.2949,,
3329,HARBOR   @ WALLISVILLE RD,HARBOR & ALDERSON ST,29.787232,-95.294922,,
3330,WALLISVILLE RD @ PORT ST,,29.78762,-95.29643,,
3331,WALLISVILLE RD @ BOYLES ST,,29.78757,-95.29917,,
3332,LATHROP ST @ ALDERSON ST,,29.78706,-95.30119,,
3333,LATHROP ST @ GAINESVILLE,,29.78571,-95.30119,,
3334,LATHROP ST @ TEXARKANA ST,,29.78431,-95.30119,,
3335,LATHROP ST @ VICTORIA ST,,29.78298,-95.30119,,
3336,LATHROP ST @ BROWNSVILLE ST,,29.781612,-95.301249,,
3337,LATHROP ST @ HILLSBORO ST,,29.780205,-95.301209,,
3338,LATHROP ST @ HERSHE ST,,29.778418,-95.301256,,
3339,LATHROP ST @ LYONS AVE,,29.776964,-95.301255,,
3340,HAILEY ST @ LIBERTY RD,,29.78439,-95.33674,,
3341,HAILEY ST @ CAMPBELL ST,,29.78288,-95.3367,,
3342,HAILEY ST @ LEE ST,,29.7819,-95.3367,,
3343,HAILEY ST @ NOBLE ST,,29.78105,-95.33668,,
3344,HAILEY ST @ SUMPTER,,29.779933,-95.336717,,
3345,SUMPTER   @ EASTEX FREEWAY,,29.77978,-95.33915,,
3346,SUMPTER   @ HAILEY ST,,29.779793,-95.336765,,
3347,HAILEY ST @ NOBLE ST,,29.78078,-95.3366,,
3348,HAILEY ST @ LEE ST,,29.78174,-95.33662,,
3349,HAILEY ST @ CAMPBELL ST,,29.78273,-95.33663,,
3350,HAILEY ST @ QUITMAN ST,,29.78371,-95.33664,,
3351,HAILEY ST @ LIBERTY RD,,29.78456,-95.33666,,
3352,WIPPRECHT ST @ COLLINGSWORTH ST,,29.794553,-95.322197,,
3353,WIPPRECHT ST @ CRANE ST,,29.79686,-95.32224,,
3354,WIPPRECHT ST @ CRANE ST,,29.79877,-95.32227,,
3355,WIPPRECHT ST @ CAVALCADE ST,,29.80018,-95.32227,,
3356,WIPPRECHT ST @ CAVALCADE ST,,29.80171,-95.32231,,
3357,WIPPRECHT ST @ RAND ST,,29.8038,-95.32235,,
3358,RAND ST @ LAVENDER ST,,29.80386,-95.32072,,
3359,RAND ST @ LOCKWOOD DR,,29.8039,-95.31736,,
3360,RAND ST @ PICKFAIR ST,,29.80398,-95.31871,,
3361,RAND ST @ LAVENDER ST,,29.80395,-95.3205,,
3362,RAND ST @ WIPPRECHT ST,,29.80393,-95.32224,,
3363,WIPPRECHT ST @ RAND ST,,29.80181,-95.32239,,
3364,WIPPRECHT ST @ CAVALCADE ST,,29.800551,-95.322388,,
3365,WIPPRECHT ST @ CAVALCADE ST,,29.79872,-95.32233,,
3366,WIPPRECHT ST @ CRANE ST,,29.79703,-95.32231,,
3367,WIPPRECHT ST @ COLLINGSWORTH ST,,29.794382,-95.322293,,
3368,CLINTON DR @ PORT HOUSTON GATE 8,,29.755786,-95.292022,,
3369,CLINTON DR @ DORSETT,,29.752435,-95.287255,,
3370,CLINTON DR @ MC CARTY ST,,29.75036,-95.28407,,
3371,CLINTON DR @ GATE 2 RD,,29.74762,-95.27995,,
3372,CLINTON DR @ LOOP,,29.73958,-95.26766,,
3373,CLINTON DR @ PENNSYLVANIA ST,,29.73532,-95.26116,,
3374,FIDELITY   @ MASCOT ST,,29.732585,-95.255097,,
3375,FIDELITY   @ RHODE ISLAND ST,,29.73472,-95.25516,,
3376,FIDELITY   @ GANS,,29.73609,-95.2552,,
3377,FIDELITY   @ PENNSYLVANIA ST,,29.73748,-95.25523,,
3378,FIDELITY   @ BOLDEN ST,,29.73882,-95.255214,,
3379,FIDELITY   @ CAROLINA ST,,29.74022,-95.2553,,
3380,FIDELITY   @ CARTERSVILLE ST,,29.74158,-95.25533,,
3381,FIDELITY   @ CALLOWAY ST,,29.74297,-95.25537,,
3382,MISSISSIPPI ST @ CLINTON PARK ST,,29.74371,-95.25743,,
3383,CLINTON PARK ST @ GEORGIA,,29.74206,-95.25753,,
3384,CAROLINA ST @ MIDWAY,,29.73966,-95.26038,,
3385,CAROLINA ST @ ZACHARY,,29.739007,-95.261582,,
3386,CAROLINA ST @ DEFENDER,,29.73789,-95.26283,,
3387,DEFENDER   @ ZACHARY,,29.73902,-95.26341,,
3388,DEFENDER   @ GEORGIA,,29.74074,-95.26347,,
3389,DEFENDER   @ CALLOWAY ST,,29.74173,-95.2635,,
3390,DEFENDER   @ MISSISSIPPI ST,,29.74327,-95.26352,,
3391,MISSISSIPPI ST @ TEAL,,29.74357,-95.26719,,
3392,MISSISSIPPI ST @ SOL,,29.743539,-95.269112,,
3393,MISSISSIPPI ST @ CLINTON DR,,29.743454,-95.272121,,
3394,MISSISSIPPI ST @ SOL,,29.74347,-95.26929,,
3395,MISSISSIPPI ST @ TEAL,,29.7435,-95.26738,,
3396,DEFENDER   @ CALLOWAY ST,,29.74161,-95.26356,,
3397,DEFENDER   @ GEORGIA,,29.74088,-95.26353,,
3398,DEFENDER   @ ZACHARY,,29.73919,-95.26348,,
3399,DEFENDER   @ CAROLINA ST,,29.73783,-95.26297,,
3400,CAROLINA ST @ ZACHARY,,29.7389,-95.26164,,
3401,CAROLINA ST @ MIDWAY,,29.73954,-95.26051,,
3402,CAROLINA ST @ CLINTON PARK ST,,29.74021,-95.25755,,
3403,CLINTON PARK ST @ GEORGIA,,29.74189,-95.25746,,
3404,CLINTON PARK ST @ MISSISSIPPI ST,,29.74358,-95.2575,,
3405,MISSISSIPPI ST @ FIDELITY,,29.74368,-95.25568,,
3406,MISSISSIPPI ST @ FIDELITY,,29.74374,-95.25584,,
3407,FIDELITY   @ CLEARWATER,,29.74241,-95.25542,,
3408,FIDELITY   @ CAROLINA ST,,29.74035,-95.25538,,
3409,FIDELITY   @ BOLDEN ST,,29.738965,-95.25538,,
3410,FIDELITY   @ PENNSYLVANIA ST,,29.73762,-95.25531,,
3411,FIDELITY   @ GANS,,29.73622,-95.25527,,
3412,FIDELITY   @ RHODE ISLAND ST,,29.73485,-95.25523,,
3413,FIDELITY   @ MASCOT ST,,29.7328,-95.25517,,
3414,CLINTON DR @ PINE ST,,29.73237,-95.24741,,
3415,CLINTON DR @ MC CONNICO DR,,29.73235,-95.24493,,
3416,CLINTON DR @ EASTWAY ST,,29.73237,-95.24128,,
3417,MAIN ST @ 1ST ST,,29.73308,-95.24011,,
3418,MAIN ST @ 3RD ST,,29.73458,-95.24014,,
3419,MAIN ST @ 5TH ST,,29.73604,-95.24015,,
3420,MAIN ST @ 7TH ST,,29.73752,-95.24016,,
3421,MAIN ST @ 9TH ST,,29.73896,-95.24017,,
3422,MAIN ST @ 10TH ST,,29.73969,-95.24018,,
3424,11TH ST @ PARKSIDE DR,,29.74048,-95.23807,,
3425,11TH ST @ KEENE ST,,29.74046,-95.23662,,
3426,11TH ST @ SINCLAIR AVE,,29.74046,-95.23441,,
3427,11TH ST @ HOLLAND AVE,,29.740447,-95.233147,,
3429,HOLLAND AVE @ 9TH ST,,29.73912,-95.23305,,
3430,HOLLAND AVE @ 4TH ST,,29.73547,-95.23293,,
3431,HOLLAND AVE @ 3RD ST,,29.73473,-95.2329,,
3432,HOLLAND AVE @ 2ND ST,,29.73401,-95.23289,,
3433,HOLLAND AVE @ 1ST ST,,29.73328,-95.23286,,
3434,CLINTON DR @ WOLFE ST,,29.73256,-95.23511,,
3435,CLINTON DR @ KEENE ST,,29.73257,-95.23623,,
3436,CLINTON DR @ STEWART ST,,29.73255,-95.23769,,
3437,CLINTON DR @ MAIN ST,,29.73254,-95.24005,,
3438,CLINTON DR @ EASTWAY ST,,29.73256,-95.24168,,
3439,CLINTON DR @ CENTER DR,,29.73256,-95.24297,,
3440,CLINTON DR @ MC CONNICO DR,,29.73256,-95.24483,,
3441,CLINTON DR @ GRAHAM DR,,29.73255,-95.24804,,
3442,CLINTON DR @ FIDELITY,,29.73207,-95.255,,
3443,CLINTON DR @ GATE 2 RD,,29.74791,-95.27998,,
3444,MC CARTY ST @ SIGNET ST,,29.752802,-95.283431,,
3445,MC CARTY ST @ MASTERSON ST,,29.75417,-95.28346,,
3446,MC CARTY ST @ KERR ST,,29.75555,-95.28349,,
3447,MC CARTY ST @ BUCHANAN ST,,29.75692,-95.28352,,
3448,MC CARTY ST @ FILLMORE,,29.75833,-95.28354,,
3449,MC CARTY ST @ LANE ST,,29.7597,-95.28356,,
3450,MC CARTY ST @ MUNN ST,,29.761028,-95.283577,,
3451,MUNN ST @ PEARL,,29.76116,-95.2823,,
3452,MUNN ST @ DEMAREE LN,,29.76117,-95.27775,,
3453,GUINEVERE ST @ DEMAREE LN,,29.75954,-95.27733,,
3454,GUINEVERE ST @ PLEASANTVILLE DR,,29.75957,-95.27599,,
3455,PLEASANTVILLE DR @ CARGILL ST,,29.75818,-95.27586,,
3456,BUCROFT   @ SILVERDALE,,29.75727,-95.274902,,
3457,BUCROFT   @ GELLHORN DR,,29.75731,-95.27283,,
3458,GELLHORN DR @ FILLMORE,,29.75881,-95.27272,,
3459,GELLHORN DR @ GUINEVERE ST,,29.760121,-95.272567,,
3460,GUINEVERE ST @ LEDWICKE,,29.76026,-95.27008,,
3461,LEDWICKE   @ FLOSSIE MAE,,29.76176,-95.26985,,
3462,LEDWICKE   @ PATTIBOB,,29.76328,-95.26988,,
3463,LEDWICKE   @ TILGHAM ST,,29.76543,-95.26994,,
3464,TILGHAM ST @ GELLHORN DR,,29.76593,-95.2727,,
3465,TILGHAM ST @ PLEASANTVILLE DR,,29.76617,-95.27555,,
3466,PLEASANTVILLE DR @ TILGHAM ST,,29.76957,-95.27696,,
3467,PLEASANTVILLE DR @ MARKET ST,,29.77108,-95.27751,,
3468,MARKET ST @ PORT HOUSTON ST,,29.77192,-95.28093,,
3469,MC CARTY ST @ MUNN ST,MC CARTY ST & CHADWICK ST,29.760749,-95.283768,,
3470,MC CARTY ST @ LANE ST,,29.75991,-95.28375,,
3471,MC CARTY ST @ FILLMORE,,29.75853,-95.28373,,
3472,MC CARTY ST @ BUCHANAN ST,,29.75711,-95.2837,,
3473,MC CARTY ST @ KERR ST,,29.75576,-95.28367,,
3474,MC CARTY ST @ MASTERSON ST,,29.75439,-95.28365,,
3475,MC CARTY ST @ SIGNET ST,,29.753023,-95.283665,,
3476,MC CARTY ST @ STEDMAN ST,,29.751779,-95.283625,,
3477,CLINTON DR @ MC CARTY ST,,29.75071,-95.2842,,
3478,CLINTON DR @ PORT HOUSTON GATE 8,,29.755537,-95.291488,,
3479,MAC GREGOR WAY @ OAKMONT ST,,29.71046,-95.37111,,
3480,GRIGGS RD @ ST AUGUSTINE ST,,29.70333,-95.35356,,
3481,GRIGGS RD @ ST AUGUSTINE ST,,29.70378,-95.35501,,
3484,GRIGGS RD @ SCOTTCREST DR,,29.70375,-95.35535,,
3485,GRIGGS RD @ ST AUGUSTINE ST,,29.70335,-95.35405,,
3486,CALHOUN RD @ OLD SPANISH TRAIL ST,,29.707307,-95.342955,,
3487,CALHOUN RD @ ROSENEATH DR,,29.709875,-95.341912,,
3488,CALHOUN RD @ MAC GREGOR WAY,,29.710958,-95.341584,,
3491,CALHOUN RD @ MAC GREGOR WAY,,29.710962,-95.341748,,
3492,CALHOUN RD @ ROSENEATH DR,,29.710121,-95.341957,,
3493,CALHOUN RD @ ROSENEATH DR,,29.707849,-95.34288,,
3494,CALHOUN RD @ OLD SPANISH TRAIL ST,,29.706897,-95.34327,,
3495,MARTIN LUTHER KING BLVD @ OLD SPANI,MARTIN LUTHER KING BLVD & OLD SPANISH TRAIL ST,29.70948,-95.33599,,
3496,WHEELER ST @ CALHOUN RD,,29.716056,-95.340538,,
3497,WHEELER ST @ UNIVERSITY OAKS BLVD,,29.71651,-95.342049,,
3498,WHEELER ST @ ROCKWOOD DR,,29.717547,-95.345391,,
3503,CULLEN BLVD @ UNIVERSTIY OF HOUSTON,,29.724467,-95.34581,,
3504,CULLEN BLVD @ ELGIN ST,,29.726937,-95.344055,,
3505,CULLEN BLVD @ TUAM ST,,29.728658,-95.343292,,
3508,CULLEN BLVD @ TUAM ST,,29.728963,-95.343384,,
3509,CULLEN BLVD @ ELGIN ST,,29.726573,-95.344513,,
3510,CULLEN BLVD @ HOLMAN ST,,29.725031,-95.345779,,
3511,CULLEN BLVD @ UNIVERSITY OF HOUSTON,,29.723692,-95.34642,,
3515,WHEELER ST @ SCOTT ST,,29.719611,-95.352272,,
3521,CLEBURNE ST @ SCOTT ST,,29.721426,-95.35244,,
3522,CLEBURNE ST @ CANFIELD ST,,29.721925,-95.35408,,
3525,WHEELER ST @ SCOTT ST,,29.719405,-95.351951,,
3526,WHEELER ST @ CULLEN BLVD,,29.718208,-95.348007,,
3527,WHEELER ST @ ROCKWOOD DR,,29.717591,-95.345978,,
3528,WHEELER ST @ UNIVERSITY OAKS BLVD,,29.716504,-95.342331,,
3530,MARTIN LUTHER KING BLVD @ OLD SPANI,MARTIN LUTHER KING BLVD & OLD SPANISH TRAIL ST,29.709,-95.33684,,
3532,HOLMAN ST @ SCOTT ST,,29.724772,-95.3502,,
3533,HOLMAN ST @ NAPOLEON ST,,29.725272,-95.351898,,
3534,HOLMAN ST @ TIERWESTER ST,,29.726256,-95.355118,,
3535,HOLMAN ST @ NETTLETON ST,,29.727019,-95.356758,,
3536,HOLMAN ST @ BURKETT ST,,29.727609,-95.357895,,
3537,HOLMAN ST @ SAUER ST,,29.728737,-95.360024,,
3538,HOLMAN ST @ ENNIS ST,,29.72977,-95.36179,,
3539,HOLMAN ST @ DELANO,,29.73045,-95.36289,,
3540,HOLMAN ST @ LIVE OAK ST,,29.731514,-95.364639,,
3541,HOLMAN ST @ DOWLING ST,,29.732545,-95.366417,,
3542,HOLMAN ST @ HUTCHINS ST,,29.7335,-95.36799,,
3543,HUTCHINS ST @ ELGIN ST,,29.735117,-95.366928,,
3544,ELGIN ST @ ST EMANUEL ST,,29.735952,-95.367454,,
3545,LYONS AVE @ DES CHAUMES,,29.775598,-95.338364,,
3546,LYONS AVE @ GREGG ST,,29.775835,-95.336077,,
3547,LYONS AVE @ BRINGHURST ST,,29.775874,-95.334112,,
3548,LYONS AVE @ PANNELL ST,,29.775903,-95.3324,,
3549,LYONS AVE @ WORMS ST,,29.775937,-95.331011,,
3550,LYONS AVE @ BENSON ST,,29.775975,-95.329684,,
3551,LYONS AVE @ ST ELMO ST,,29.775986,-95.329008,,
3553,LYONS AVE @ DAN,,29.776165,-95.324941,,
3554,LYONS AVE @ SCHWEIKHARDT ST,,29.77618,-95.32297,,
3555,LYONS AVE @ SOLO,,29.776204,-95.321289,,
3556,LYONS AVE @ MYSTIC ST,,29.77626,-95.31953,,
3557,LYONS AVE @ CALLES ST,,29.776315,-95.317656,,
3558,LYONS AVE @ SAKOWITZ ST,,29.776455,-95.313685,,
3559,LYONS AVE @ SHOTWELL ST,,29.776473,-95.311638,,
3560,LYONS AVE @ HAHLO ST,,29.776459,-95.309604,,
3561,LYONS AVE @ KRESS ST,,29.776467,-95.307617,,
3565,LYONS AVE @ LATHROP ST,,29.776441,-95.30134,,
3566,LYONS AVE @ BOYLES ST,,29.776526,-95.299002,,
3567,LYONS AVE @ PORT ST,,29.77659,-95.29655,,
3570,LYONS AVE @ HENKE,,29.776556,-95.306151,,
3571,LYONS AVE @ KRESS ST,,29.776555,-95.307205,,
3572,LYONS AVE @ HAHLO ST,,29.77657,-95.309353,,
3573,LYONS AVE @ SHOTWELL ST,,29.776558,-95.311425,,
3574,LYONS AVE @ SAKOWITZ ST,,29.776575,-95.313269,,
3575,LYONS AVE @ CALLES ST,,29.77641,-95.3177,,
3576,LYONS AVE @ MYSTIC ST,,29.77635,-95.31937,,
3577,LYONS AVE @ SOLO,,29.7763,-95.32096,,
3578,LYONS AVE @ SCHWEIKHARDT ST,,29.77628,-95.32275,,
3579,LYONS AVE @ DAN,,29.77626,-95.3247,,
3580,LYONS AVE @ WACO ST,,29.776226,-95.325928,,
3581,LYONS AVE @ ST ELMO ST,,29.776123,-95.32831,,
3582,LYONS AVE @ BENSON ST,,29.776094,-95.329432,,
3583,LYONS AVE @ WORMS ST,,29.776043,-95.331161,,
3584,LYONS AVE @ CAPRON ST,,29.776002,-95.332914,,
3585,LYONS AVE @ BRINGHURST ST,,29.775999,-95.333838,,
3586,LYONS AVE @ GREGG ST,,29.775955,-95.335399,,
3587,LYONS AVE @ DES CHAUMES,,29.775849,-95.338198,,
3588,GREGG ST @ BUCK ST,,29.76993,-95.33562,,
3589,GREGG ST @ GREEN,,29.77153,-95.33569,,
3590,GREGG ST @ MARKET ST,,29.77241,-95.33571,,
3591,MARKET ST @ BRINGHURST ST,,29.772539,-95.333884,,
3592,MARKET ST @ WORMS ST,,29.77253,-95.33137,,
3593,MARKET ST @ BENSON ST,,29.77261,-95.32984,,
3594,BENSON ST @ CURTIS,,29.774588,-95.329476,,
3595,BENSON ST @ LYONS AVE,,29.775737,-95.329618,,
3596,BENSON ST @ CURTIS,,29.774238,-95.329657,,
3597,MARKET ST @ GRANGER,,29.772658,-95.330215,,
3598,MARKET ST @ WORMS ST,,29.77264,-95.331161,,
3599,MARKET ST @ BRINGHURST ST,,29.772655,-95.333639,,
3600,MARKET ST @ GREGG ST,,29.772606,-95.335549,,
3601,GREGG ST @ GREEN,,29.771388,-95.335829,,
3602,GREGG ST @ BUCK ST,,29.77003,-95.33583,,
3603,EAST FREEWAY   @ GREGG ST,,29.769426,-95.336265,,
3604,EAST FREEWAY   @ GREGG ST,,29.7694,-95.33732,,
3605,EAST FREEWAY   @ MEADOW ST,,29.76937,-95.33882,,
3606,EASTEX FREEWAY   @ SUMPTER,,29.77962,-95.33936,,
3607,EASTEX FREEWAY   @ NOBLE ST,,29.78111,-95.33921,,
3608,EASTEX FREEWAY   @ CAMPBELL ST,,29.78267,-95.33926,,
3609,EASTEX FREEWAY   @ LIBERTY RD,,29.78456,-95.33926,,
3610,EASTEX FREEWAY   @ RETTA,,29.78699,-95.33923,,
3611,EASTEX FREEWAY   @ MARTHA ST,,29.78829,-95.3392,,
3612,EASTEX FREEWAY   @ JEWEL ST,,29.78973,-95.33916,,
3613,EASTEX FREEWAY   @ ROLAND ST,,29.79095,-95.33914,,
3614,EASTEX FREEWAY   @ BRILL ST,,29.792289,-95.339179,,
3615,EASTEX FREEWAY   @ BAIN ST,,29.7948,-95.3392,,
3616,EASTEX FREEWAY   @ CRANE ST,,29.79647,-95.3392,,
3617,HIRSCH RD @ LOOP,,29.80773,-95.32851,,
3618,HIRSCH RD @ PARDEE ST,,29.80591,-95.32842,,
3619,HIRSCH RD @ RAND ST,,29.80395,-95.32838,,
3620,HIRSCH RD @ CAVALCADE ST,,29.800622,-95.328346,,
3621,BROYLES ST @ CRANE ST,,29.79702,-95.32787,,
3622,BROYLES ST @ BERTHA ST,,29.79555,-95.32784,,
3623,BROYLES ST @ COLLINGSWORTH ST,,29.79368,-95.32782,,
3624,BROYLES ST @ TIFFIN ST,,29.79205,-95.32776,,
3625,WACO ST @ BOND ST,,29.78953,-95.32755,,
3626,WACO ST @ LIBERTY RD,,29.78644,-95.32744,,
3627,WACO FRONTAGE RD @ NOBLE ST,,29.780408,-95.32684,,
3628,WACO ST @ OATS ST,,29.778376,-95.326737,,
3629,WACO ST @ NEW ORLEANS ST,,29.776986,-95.326622,,
3630,WACO ST @ ORANGE,,29.774259,-95.326592,,
3631,WACO ST @ ORANGE,,29.774083,-95.326301,,
3632,WACO ST @ LYONS AVE,,29.776,-95.3263,,
3633,WACO ST @ NEW ORLEANS ST,,29.77675,-95.32634,,
3634,WACO ST @ OATS ST,,29.77816,-95.32648,,
3635,WACO ST @ NOBLE ST,,29.780104,-95.326515,,
3636,WACO ST @ LIBERTY RD,,29.786246,-95.327179,,
3637,WACO ST @ BOND ST,,29.78927,-95.32734,,
3638,BROYLES ST @ TIFFIN ST,,29.79167,-95.32749,,
3639,BROYLES ST @ COLLINGSWORTH ST,,29.79328,-95.32761,,
3640,BROYLES ST @ BERTHA ST,,29.79509,-95.32763,,
3641,BROYLES ST @ CRANE ST,,29.79663,-95.32765,,
3642,HIRSCH RD @ CAVALCADE ST,,29.800752,-95.328125,,
3643,HIRSCH RD @ RAND ST,,29.80368,-95.32818,,
3644,HIRSCH RD @ PARDEE ST,,29.80558,-95.32821,,
3645,HIRSCH RD @ LOOP,,29.80775,-95.32827,,
3646,LOCKWOOD DR @ MINDEN ST,,29.807594,-95.317229,,
3647,LOCKWOOD DR @ PARDEE ST,,29.806031,-95.317147,,
3648,LOCKWOOD DR @ RAND ST,,29.80408,-95.31711,,
3649,LOCKWOOD DR @ BUNTE ST,,29.80222,-95.31708,,
3650,LOCKWOOD DR @ CAVALCADE ST,,29.800562,-95.317119,,
3651,LOCKWOOD DR @ MARCUS ST,,29.79891,-95.31703,,
3652,LOCKWOOD DR @ CRANE ST,,29.79714,-95.31701,,
3653,LOCKWOOD DR @ MAKEIG ST,,29.795519,-95.316971,,
3654,LOCKWOOD DR @ COLLINGSWORTH ST,,29.79409,-95.31649,,
3655,LOCKWOOD DR @ SALINA,,29.79211,-95.31619,,
3656,LOCKWOOD DR @ SUEZ ST,,29.78327,-95.31606,,
3657,LOCKWOOD DR @ NICHOLS,,29.78135,-95.31603,,
3658,LOCKWOOD DR @ MULVEY ST,,29.780395,-95.316044,,
3659,LOCKWOOD DR @ HERSHE ST,,29.77842,-95.316,,
3660,LOCKWOOD DR @ HERSHE ST,,29.77829,-95.31573,,
3661,LOCKWOOD DR @ MULVEY ST,,29.78019,-95.31577,,
3662,LOCKWOOD DR @ SUEZ ST,,29.78303,-95.3158,,
3663,LOCKWOOD DR @ SUDAN ST,,29.78403,-95.31578,,
3664,LOCKWOOD DR @ SALINA,,29.79166,-95.31602,,
3665,LOCKWOOD DR @ COLLINGSWORTH ST,,29.79355,-95.31605,,
3666,LOCKWOOD DR @ MAKEIG ST,,29.79537,-95.31682,,
3667,LOCKWOOD DR @ CRANE ST,,29.79676,-95.31682,,
3668,LOCKWOOD DR @ MARCUS ST,,29.79856,-95.31686,,
3669,LOCKWOOD DR @ CAVALCADE ST,,29.799921,-95.316849,,
3670,LOCKWOOD DR @ BUNTE ST,,29.80212,-95.31692,,
3671,LOCKWOOD DR @ RAND ST,,29.803599,-95.316948,,
3672,LOCKWOOD DR @ PARDEE ST,,29.80615,-95.31699,,
3673,LOCKWOOD DR @ MINDEN ST,,29.807238,-95.316953,,
3674,HOUSTON AVE @ SPRING,,29.7751,-95.37231,,
3675,HOUSTON AVE @ ALAMO ST,,29.77657,-95.37236,,
3676,HOUSTON AVE @ ALAMO ST,,29.77661,-95.37249,,
3677,HOUSTON AVE @ SPRING,,29.77533,-95.37247,,
3678,HOUSTON AVE @ CROCKETT ST,,29.773837,-95.372505,,
3679,HOUSTON AVE @ BINGHAM ST,,29.771684,-95.372493,,
3680,HOUSTON AVE @ DART ST,,29.769838,-95.372467,,
3681,HOUSTON AVE @ WASHINGTON AVE,HOUSTON AVE & DECATUR,29.767004,-95.372444,,
3682,HOUSTON AVE @ LUBBOCK ST,,29.76563,-95.37244,,
3683,SAWYER ST @ LUBBOCK ST,,29.76539,-95.38143,,
3684,SAWYER ST @ UNION,,29.76748,-95.38265,,
3685,SAWYER ST @ UNION,,29.76728,-95.3827,,
3686,SAWYER ST @ STATE ST,,29.76463,-95.3814,,
3687,HOUSTON AVE @ WASHINGTON AVE,,29.767881,-95.372223,,
3688,HOUSTON AVE @ DART ST,,29.769945,-95.372246,,
3698,HOUSTON AVE @ BINGHAM ST,,29.771428,-95.372261,,
3699,HOUSTON AVE @ CROCKETT ST,,29.773413,-95.372284,,
3702,LOVETT BLVD @ YOAKUM BLVD,,29.743533,-95.392276,,
3703,MONTROSE BLVD @ WOODROW ST,,29.73246,-95.39118,,
3704,MONTROSE BLVD @ WOODROW ST,,29.732302,-95.391001,,
3705,MONTROSE BLVD @ KIPLING ST,,29.74059,-95.39129,,
3706,MAC GREGOR WAY @ BOWLING GREEN ST,,29.70899,-95.37061,,
3707,MAC GREGOR WAY @ OAKMONT ST,,29.71016,-95.37102,,
3708,MAC GREGOR WAY @ ARDMORE ST,,29.712607,-95.371147,,
3709,MAC GREGOR WAY @ ARDMORE ST,,29.71379,-95.37088,,
3710,MAC GREGOR WAY @ RIVERSIDE DR,,29.71448,-95.37316,,
3711,MAC GREGOR WAY @ MAC GREGOR WAY,,29.71401,-95.37469,,
3712,MAC GREGOR WAY @ SOUTH FREEWAY FWY,,29.71328,-95.37724,,
3713,MAC GREGOR WAY @ SOUTH FREEWAY FWY,,29.71201,-95.37669,,
3714,MAC GREGOR WAY @ ARDMORE ST,,29.712809,-95.371491,,
3715,MAC GREGOR WAY @ RIVERSIDE DR,,29.71618,-95.376785,,
3716,LIVE OAK ST @ RIVERSIDE DR,,29.71633,-95.37514,,
3717,LIVE OAK ST @ CALUMET ST,,29.717295,-95.374474,,
3718,LIVE OAK ST @ PROSPECT ST,,29.718039,-95.373497,,
3719,SOUTHMORE ST @ LIVE OAK ST,,29.72008,-95.37347,,
3720,SOUTHMORE ST @ SOUTH FREEWAY FWY,,29.7217,-95.37595,,
3721,SOUTHMORE ST @ DOWLING ST,,29.72128,-95.37559,,
3722,SOUTHMORE ST @ LIVE OAK ST,,29.71978,-95.37309,,
3723,LIVE OAK ST @ PROSPECT ST,,29.71823,-95.3735,,
3724,LIVE OAK ST @ CALUMET ST,,29.717568,-95.374154,,
3725,LIVE OAK ST @ BINZ ST,,29.71685,-95.37505,,
3726,MAC GREGOR WAY @ RIVERSIDE DR,,29.7161,-95.37691,,
3727,MAC GREGOR WAY @ RIVERSIDE DR,,29.714925,-95.376519,,
3728,MAC GREGOR WAY @ MAC GREGOR WAY,,29.71412,-95.37534,,
3729,ENNIS ST @ CALUMET ST,,29.71644,-95.37154,,
3731,ENNIS ST @ WICHITA ST,,29.718747,-95.369789,,
3732,ENNIS ST @ ROSEDALE ST,,29.719951,-95.368821,,
3733,ENNIS ST @ WENTWORTH,,29.721223,-95.36782,,
3735,ENNIS ST @ WHEELER ST,,29.723671,-95.365875,,
3736,ENNIS ST @ EAGLE,,29.72491,-95.364891,,
3737,ENNIS ST @ ISABELLA ST,,29.726224,-95.363853,,
3738,ENNIS ST @ WINBERN,,29.728713,-95.361885,,
3739,ENNIS ST @ EAGLE,,29.725238,-95.364807,,
3740,ENNIS ST @ WHEELER ST,,29.723996,-95.365799,,
3741,ENNIS ST @ BLODGETT ST,,29.722192,-95.367233,,
3742,BLODGETT ST @ ENNIS ST,,29.722261,-95.367646,,
3743,BLODGETT ST @ DELANO,,29.722983,-95.368919,,
3744,BLODGETT ST @ LIVE OAK ST,,29.724044,-95.370613,,
3745,LIVE OAK ST @ ROSEWOOD ST,,29.725171,-95.369766,,
3747,LIVE OAK ST @ CLEBURNE ST,,29.727423,-95.367988,,
3748,CLEBURNE ST @ DOWLING ST,,29.728791,-95.369316,,
3749,CLEBURNE ST @ HUTCHINS ST,,29.729773,-95.370973,,
3750,HUTCHINS ST @ ALABAMA ST,,29.731543,-95.369766,,
3751,HUTCHINS ST @ HOLMAN ST,,29.733456,-95.368256,,
3752,HUTCHINS ST @ ALABAMA ST,,29.731926,-95.369631,,
3753,HUTCHINS ST @ CLEBURNE ST,,29.729985,-95.371155,,
3754,CLEBURNE ST @ DOWLING ST,,29.728901,-95.369728,,
3755,CLEBURNE ST @ LIVE OAK ST,,29.727826,-95.367935,,
3756,LIVE OAK ST @ BARBEE,,29.726638,-95.368751,,
3757,LIVE OAK ST @ WHEELER ST,,29.726029,-95.369249,,
3758,LIVE OAK ST @ ROSEWOOD ST,,29.725366,-95.369751,,
3759,BLODGETT ST @ LIVE OAK ST,,29.7237,-95.3703,,
3760,BLODGETT ST @ DELANO,,29.723003,-95.369148,,
3761,BLODGETT ST @ ENNIS ST,,29.721994,-95.367553,,
3762,ENNIS ST @ WENTWORTH,,29.721435,-95.367829,,
3763,ENNIS ST @ ROSEDALE ST,,29.720309,-95.368729,,
3765,ENNIS ST @ CALUMET ST,,29.71653,-95.3716,,
3766,ENNIS ST @ MAC GREGOR WAY,,29.714363,-95.371722,,
3767,SCOTT ST @ PARKWOOD DR,,29.706321,-95.357781,,
3768,SCOTT ST @ MAC GREGOR WAY,,29.708774,-95.356812,,
3769,SCOTT ST @ SOUTHMORE ST,,29.711148,-95.355869,,
3770,SCOTT ST @ PALM ST,,29.712952,-95.355156,,
3771,SCOTT ST @ ROSEDALE ST,,29.714454,-95.354561,,
3772,SCOTT ST @ BLODGETT ST,,29.716676,-95.353657,,
3773,SCOTT ST @ WHEELER ST,,29.719386,-95.352565,,
3774,SCOTT ST @ CLEBURNE ST,,29.721057,-95.351882,,
3775,SCOTT ST @ CLEBURNE ST,,29.72263,-95.351273,,
3776,SCOTT ST @ HOLMAN ST,,29.72453,-95.350518,,
3777,SCOTT ST @ REEVES ST,,29.725968,-95.349951,,
3778,SCOTT ST @ ELGIN ST,,29.727424,-95.349694,,
3779,SCOTT ST @ ANITA ST,,29.729865,-95.34951,,
3780,SCOTT ST @ DREW,,29.731498,-95.348862,,
3781,SCOTT ST @ MC GOWEN ST,,29.732353,-95.348518,,
3782,SCOTT ST @ MC GOWEN ST,,29.732911,-95.348503,,
3783,SCOTT ST @ DREW,,29.731363,-95.349144,,
3784,SCOTT ST @ ANITA ST,,29.730149,-95.349625,,
3785,SCOTT ST @ ELGIN ST,,29.728128,-95.350082,,
3786,SCOTT ST @ REEVES ST,,29.725986,-95.350185,,
3787,SCOTT ST @ HOLMAN ST,,29.725039,-95.350517,,
3788,SCOTT ST @ ALABAMA ST,,29.722426,-95.351563,,
3789,SCOTT ST @ CLEBURNE ST,,29.720915,-95.352165,,
3790,SCOTT ST @ WHEELER ST,,29.71993,-95.35257,,
3791,SCOTT ST @ BLODGETT ST,,29.717122,-95.353691,,
3792,SCOTT ST @ ROSEDALE ST,,29.715143,-95.354484,,
3793,SCOTT ST @ PALM ST,,29.713214,-95.355278,,
3794,SCOTT ST @ SOUTHMORE ST,,29.711844,-95.355797,,
3795,SOUTHMORE ST @ SCOTT ST,,29.711815,-95.356362,,
3796,SOUTHMORE ST @ SCOTT ST,,29.712887,-95.357926,,
3797,SOUTHMORE ST @ TIERWESTER ST,,29.714444,-95.360252,,
3798,SOUTHMORE ST @ BURKETT ST,,29.714732,-95.363045,,
3799,SOUTHMORE ST @ SAUER ST,,29.715497,-95.365585,,
3800,SOUTHMORE ST @ PALMER ST,,29.717155,-95.368401,,
3801,SOUTHMORE ST @ ENNIS ST,,29.718134,-95.370011,,
3802,SOUTHMORE ST @ ENNIS ST,,29.717902,-95.36998,,
3803,SOUTHMORE ST @ PALMER ST,,29.717154,-95.368774,,
3804,SOUTHMORE ST @ SAMPSON ST,,29.716123,-95.36705,,
3805,SOUTHMORE ST @ SAUER ST,,29.715419,-95.365852,,
3806,SOUTHMORE ST @ BURKETT ST,,29.714641,-95.363335,,
3807,SOUTHMORE ST @ TIERWESTER ST,,29.714434,-95.360573,,
3808,SOUTHMORE ST @ TIERWESTER ST,,29.712797,-95.358048,,
3809,SOUTHMORE ST @ SCOTT ST,,29.71147,-95.35612,,
3810,SCOTT ST @ MAC GREGOR WAY,,29.710445,-95.356361,,
3811,MAC GREGOR WAY @ SCOTT ST,,29.71056,-95.35672,,
3812,MAC GREGOR WAY @ SCOTT ST,,29.710704,-95.359299,,
3813,MAC GREGOR WAY @ TIERWESTER ST,,29.71075,-95.36172,,
3814,TIERWESTER ST @ SOUTHMORE ST,,29.714276,-95.360458,,
3815,TIERWESTER ST @ ROSEDALE ST,,29.71609,-95.3597,,
3816,TIERWESTER ST @ BLODGETT ST,,29.718186,-95.358833,,
3820,TIERWESTER ST @ ALABAMA ST,,29.724739,-95.356278,,
3821,TIERWESTER ST @ HOLMAN ST,,29.726203,-95.35569,,
3822,TIERWESTER ST @ ALABAMA ST,,29.725341,-95.35617,,
3827,TIERWESTER ST @ ROSEDALE ST,,29.71631,-95.3597,,
3828,TIERWESTER ST @ SOUTHMORE ST,,29.714644,-95.360405,,
3829,TIERWESTER ST @ MAC GREGOR WAY,,29.71098,-95.36192,,
3830,SCOTT ST @ MAC GREGOR WAY,,29.708544,-95.357153,,
3831,SCOTT ST @ PARKWOOD DR,,29.706631,-95.357856,,
3832,CAVALCADE ST @ AVERILL ST,,29.8034,-95.36378,,
3833,CAVALCADE ST @ BEGGS ST,,29.80338,-95.3656,,
3834,CAVALCADE ST @ FULTON ST,,29.803355,-95.368118,,
3835,CAVALCADE ST @ BRISTOL ST,,29.80394,-95.37124,,
3836,PASCHALL ST @ FLETCHER,,29.77781,-95.36456,,
3837,THOMAS   @ BISHOP ST,,29.77702,-95.36521,,
3838,JAMES ST @ KEENE,,29.77691,-95.36309,,
3839,CAVALCADE ST @ DES CHAUMES,,29.801187,-95.338839,,
3840,CAVALCADE ST @ LINN ST,,29.800553,-95.336411,,
3841,CAVALCADE ST @ FALLS,,29.800102,-95.331,,
3842,CAVALCADE ST @ HIRSCH RD,,29.800152,-95.328486,,
3843,CAVALCADE ST @ WAYNE ST,,29.80019,-95.326,,
3844,CAVALCADE ST @ WIPPRECHT ST,,29.80022,-95.32247,,
